landing_station_id,landing_station_name,landing_region_id,landing_region_label,latitude,longitude,region_assignment_method
aasiaat-greenland,"Aasiaat, Greenland",landing_region_0001,"Aasiaat, Greenland",68.70697200462038,-52.85911683438676,geographic_connected_component
aberdeen-united-kingdom,"Aberdeen, United Kingdom",landing_region_0002,"Aberdeen, United Kingdom",57.15381999999989,-2.106789,geographic_connected_component
abidjan-cte-divoire,"Abidjan, Côte d'Ivoire",landing_region_0003,"Abidjan, Côte d'Ivoire",5.323518612555771,-4.026241271803983,geographic_connected_component
abu-dhabi-united-arab-emirates,"Abu Dhabi, United Arab Emirates",landing_region_0004,"Abu Dhabi, United Arab Emirates",24.44378591321795,54.41888334074638,geographic_connected_component
abu-talat-egypt,"Abu Talat, Egypt",landing_region_0005,"Abu Talat, Egypt",31.071848731738037,29.702494600068096,geographic_connected_component
accra-ghana,"Accra, Ghana",landing_region_0006,"Accra, Ghana",5.558283401661053,-0.201097497196668,geographic_connected_component
achnaba-united-kingdom,"Achnaba, United Kingdom",landing_region_0007,"Achnaba, United Kingdom",56.019419800771715,-5.365791104104307,geographic_connected_component
addenbroke-island-bc-canada,"Addenbroke Island, BC, Canada",landing_region_0008,"Addenbroke Island, BC, Canada",51.60320130299947,-127.86370028877155,geographic_connected_component
adelaide-sa-australia,"Adelaide, SA, Australia",landing_region_0009,"Adelaide, SA, Australia",-34.926102000000434,138.5998839999997,geographic_connected_component
aden-yemen,"Aden, Yemen",landing_region_0010,"Aden, Yemen",12.800683889023277,45.0335384269116,geographic_connected_component
aeng-batu-batu-indonesia,"Aeng Batu Batu, Indonesia",landing_region_0011,"Aeng Batu Batu, Indonesia",-5.343255863481059,119.3846441249859,geographic_connected_component
aethos-greece,"Aethos, Greece",landing_region_0012,"Aethos, Greece",39.683615198996556,20.01544924229398,geographic_connected_component
afu-brazil,"Afuá, Brazil",landing_region_0013,"Afuá, Brazil",-0.157127594999777,-50.388308309999694,geographic_connected_component
agat-guam,"Agat, Guam",landing_region_0014,"Agat, Guam",13.385309999999615,144.65753000000052,geographic_connected_component
agats-indonesia,"Agats, Indonesia",landing_region_0015,"Agats, Indonesia",-5.53562932769966,138.12136310762435,geographic_connected_component
agatti-india,"Agatti, India",landing_region_0016,"Agatti, India",10.862867747435985,72.19544560983998,geographic_connected_component
agios-sostis-greece,"Agios Sostis, Greece",landing_region_0017,"Agios Sostis, Greece",37.53133917516844,25.20710136390776,geographic_connected_component
aguimes-canary-islands-spain,"Aguimes, Canary Islands, Spain",landing_region_0018,"Aguimes, Canary Islands, Spain",27.895462213161103,-15.390735174214871,geographic_connected_component
aguni-japan,"Aguni, Japan",landing_region_0019,"Aguni, Japan",26.587226800000273,127.22899780000009,geographic_connected_component
aheloy-bulgaria,"Aheloy, Bulgaria",landing_region_0020,"Aheloy, Bulgaria",42.649060000000276,27.648440999999888,geographic_connected_component
ahousat-bc-canada,"Ahousat, BC, Canada",landing_region_0008,"Addenbroke Island, BC, Canada",49.27631697591595,-126.0563412065071,geographic_connected_component
aikerness-bay-united-kingdom,"Aikerness Bay, United Kingdom",landing_region_0021,"Aikerness Bay, United Kingdom",59.11804019999936,-3.095076000000142,geographic_connected_component
aitutaki-cook-islands,"Aitutaki, Cook Islands",landing_region_0022,"Aitutaki, Cook Islands",-18.825717893638707,-159.7748995537159,geographic_connected_component
ajaccio-france,"Ajaccio, France",landing_region_0023,"Ajaccio, France",41.91932911005837,8.738642263557752,geographic_connected_component
ajigaura-japan,"Ajigaura, Japan",landing_region_0024,"Ajigaura, Japan",36.38355921004956,140.61227931178595,geographic_connected_component
akita-japan,"Akita, Japan",landing_region_0025,"Akita, Japan",39.71667000000023,140.11667000000028,geographic_connected_component
aktau-kazakhstan,"Aktau, Kazakhstan",landing_region_0026,"Aktau, Kazakhstan",43.6500019999995,51.20000099999987,geographic_connected_component
akulivik-qc-canada,"Akulivik, QC, Canada",landing_region_0027,"Akulivik, QC, Canada",60.81768099999956,-78.14424100000058,geographic_connected_component
akutan-ak-united-states,"Akutan, AK, United States",landing_region_0028,"Akutan, AK, United States",54.135556,-165.773056,geographic_connected_component
al-bayda-libya,"Al Bayda, Libya",landing_region_0029,"Al Bayda, Libya",32.88172722141822,21.74166039584776,geographic_connected_component
al-bustan-oman,"Al Bustan, Oman",landing_region_0030,"Al Bustan, Oman",23.57609000000019,58.60606000000028,geographic_connected_component
al-daayen-qatar,"Al Daayen, Qatar",landing_region_0031,"Al Daayen, Qatar",25.5385891916817,51.45189325509,geographic_connected_component
al-faw-iraq,"Al Faw, Iraq",landing_region_0032,"Al Faw, Iraq",29.923295047889447,48.531778136227075,geographic_connected_component
al-ghariya-qatar,"Al Ghariya, Qatar",landing_region_0033,"Al Ghariya, Qatar",26.129239999999825,51.212749,geographic_connected_component
al-ghaydah-yemen,"Al Ghaydah, Yemen",landing_region_0034,"Al Ghaydah, Yemen",16.21038241802069,52.18236148761941,geographic_connected_component
al-hidd-bahrain,"Al Hidd, Bahrain",landing_region_0035,"Al Hidd, Bahrain",26.24158547784863,50.656190693773084,geographic_connected_component
al-hudaydah-yemen,"Al Hudaydah, Yemen",landing_region_0036,"Al Hudaydah, Yemen",14.797809999999796,42.954519999999896,geographic_connected_component
al-kheesa-qatar,"Al-Kheesa, Qatar",landing_region_0031,"Al Daayen, Qatar",25.294340911551398,51.51937367603625,geographic_connected_component
al-khobar-saudi-arabia,"Al Khobar, Saudi Arabia",landing_region_0035,"Al Hidd, Bahrain",26.286171946143295,50.214198819384315,geographic_connected_component
al-khums-libya,"Al Khums, Libya",landing_region_0037,"Al Khums, Libya",32.64966152384897,14.26441959904531,geographic_connected_component
al-safat-kuwait,"Al Safat, Kuwait",landing_region_0038,"Al Safat, Kuwait",29.3699313067502,47.97650509208753,geographic_connected_component
al-seeb-oman,"Al Seeb, Oman",landing_region_0030,"Al Bustan, Oman",23.684699958424957,58.176107241594856,geographic_connected_component
aldeburgh-united-kingdom,"Aldeburgh, United Kingdom",landing_region_0039,"Aldeburgh, United Kingdom",52.1578426448517,1.590600452297692,geographic_connected_component
alenquer-brazil,"Alenquer, Brazil",landing_region_0040,"Alenquer, Brazil",-1.944987034999834,-54.73603937000024,geographic_connected_component
alert-bay-bc-canada,"Alert Bay, BC, Canada",landing_region_0008,"Addenbroke Island, BC, Canada",50.588350919856595,-126.92634115400956,geographic_connected_component
alexandria-egypt,"Alexandria, Egypt",landing_region_0005,"Abu Talat, Egypt",31.191886381300385,29.889799154879793,geographic_connected_component
alexandria-nsw-australia,"Alexandria, NSW, Australia",landing_region_0041,"Alexandria, NSW, Australia",-33.913673538776834,151.19620853634117,geographic_connected_component
algiers-algeria,"Algiers, Algeria",landing_region_0042,"Algiers, Algeria",36.76533572626506,3.031810368831078,geographic_connected_component
alice-town-bahamas,"Alice Town, Bahamas",landing_region_0043,"Alice Town, Bahamas",25.727000831751454,-79.29337855999978,geographic_connected_component
alicudi-porto-italy,"Alicudi Porto, Italy",landing_region_0044,"Alicudi Porto, Italy",38.5358504297281,14.358271440312812,geographic_connected_component
allen-philippines,"Allen, Philippines",landing_region_0045,"Allen, Philippines",12.501379842633215,124.28234656591367,geographic_connected_component
almeirim-brazil,"Almeirim, Brazil",landing_region_0046,"Almeirim, Brazil",-1.528422080999817,-52.57775842999971,geographic_connected_component
almera-spain,"Almería, Spain",landing_region_0047,"Almería, Spain",36.84186500000091,-2.463795000000609,geographic_connected_component
alofi-niue,"Alofi, Niue",landing_region_0048,"Alofi, Niue",-19.016700578491267,-169.9167037400163,geographic_connected_component
alor-indonesia,"Alor, Indonesia",landing_region_0049,"Alor, Indonesia",-8.32065399999956,124.40375899999984,geographic_connected_component
alotau-papua-new-guinea,"Alotau, Papua New Guinea",landing_region_0050,"Alotau, Papua New Guinea",-10.315707376355984,150.4587811254958,geographic_connected_component
alsgarde-denmark,"Alsgarde, Denmark",landing_region_0051,"Alsgarde, Denmark",56.074882184341305,12.536881760350429,geographic_connected_component
alta-vista-canary-islands-spain,"Alta Vista, Canary Islands, Spain",landing_region_0018,"Aguimes, Canary Islands, Spain",27.999500527830264,-15.699963470779627,geographic_connected_component
alupang-guam,"Alupang, Guam",landing_region_0014,"Agat, Guam",13.490037,144.776754,geographic_connected_component
alvares-brazil,"Alvarães, Brazil",landing_region_0052,"Alvarães, Brazil",-3.21455230799988,-64.81206968999977,geographic_connected_component
alyangula-nt-australia,"Alyangula, NT, Australia",landing_region_0053,"Alyangula, NT, Australia",-13.851199136976314,136.4202931616224,geographic_connected_component
ama-japan,"Ama, Japan",landing_region_0019,"Aguni, Japan",26.230968589999883,127.292292,geographic_connected_component
amanzimtoti-south-africa,"Amanzimtoti, South Africa",landing_region_0054,"Amanzimtoti, South Africa",-30.057720000000288,30.88039000000108,geographic_connected_component
amatur-brazil,"Amaturá, Brazil",landing_region_0055,"Amaturá, Brazil",-3.362085687000277,-68.19721486000019,geographic_connected_component
ambon-indonesia,"Ambon, Indonesia",landing_region_0056,"Ambon, Indonesia",-3.655379222174619,128.19070608009508,geographic_connected_component
amderma-russia,"Amderma, Russia",landing_region_0057,"Amderma, Russia",69.7511999999999,61.663700000000304,geographic_connected_component
amini-india,"Amini, India",landing_region_0058,"Amini, India",11.124258631805647,72.72286795461697,geographic_connected_component
amwaj-island-bahrain,"Amwaj Island, Bahrain",landing_region_0035,"Al Hidd, Bahrain",26.228971616238493,50.57581965695888,geographic_connected_component
anadyr-russia,"Anadyr, Russia",landing_region_0059,"Anadyr, Russia",64.727191,177.50214600000047,geographic_connected_component
anchorage-ak-united-states,"Anchorage, AK, United States",landing_region_0060,"Anchorage, AK, United States",61.21746022819186,-149.85837062897107,geographic_connected_component
ancol-indonesia,"Ancol, Indonesia",landing_region_0061,"Ancol, Indonesia",-6.129010757137125,106.83337257701858,geographic_connected_component
ancon-ecuador,"Ancon, Ecuador",landing_region_0062,"Ancon, Ecuador",-2.329805834324001,-80.85594945632162,geographic_connected_component
andalsnes-norway,"Andalsnes, Norway",landing_region_0063,"Andalsnes, Norway",62.56581899999933,7.681580000000571,geographic_connected_component
andrott-india,"Andrott, India",landing_region_0064,"Andrott, India",10.810878179169102,73.67409529270167,geographic_connected_component
angoon-ak-united-states,"Angoon, AK, United States",landing_region_0065,"Angoon, AK, United States",57.50184070413134,-134.58225230032588,geographic_connected_component
angra-do-heroismo-portugal,"Angra do Heroismo, Portugal",landing_region_0066,"Angra do Heroismo, Portugal",38.65852273411055,-27.215824453460687,geographic_connected_component
annaba-algeria,"Annaba, Algeria",landing_region_0067,"Annaba, Algeria",36.902343529231146,7.755439835067562,geographic_connected_component
annies-bay-bermuda,"Annie's Bay, Bermuda",landing_region_0068,"Annie's Bay, Bermuda",32.36157644999963,-64.65918272000046,geographic_connected_component
annobon-equatorial-guinea,"Annobon, Equatorial Guinea",landing_region_0069,"Annobon, Equatorial Guinea",-1.435134530086755,5.636850199935443,geographic_connected_component
antofagasta-chile,"Antofagasta, Chile",landing_region_0070,"Antofagasta, Chile",-23.65,-70.39999999999955,geographic_connected_component
anyer-indonesia,"Anyer, Indonesia",landing_region_0071,"Anyer, Indonesia",-6.073698462562994,105.88391035900133,geographic_connected_component
aogashima-japan,"Aogashima, Japan",landing_region_0072,"Aogashima, Japan",32.45723123281979,139.76561090792202,geographic_connected_component
apia-samoa,"Apia, Samoa",landing_region_0073,"Apia, Samoa",-13.83367556515764,-171.7666841189259,geographic_connected_component
aqaba-jordan,"Aqaba, Jordan",landing_region_0074,"Aqaba, Jordan",29.581029499999897,35.005095000000225,geographic_connected_component
aracaj-brazil,"Aracajú, Brazil",landing_region_0075,"Aracajú, Brazil",-10.909604310398228,-37.07480184426858,geographic_connected_component
arawa-papua-new-guinea,"Arawa, Papua New Guinea",landing_region_0076,"Arawa, Papua New Guinea",-6.225626589587894,155.56781070933528,geographic_connected_component
archirondel-jersey,"Archirondel, Jersey",landing_region_0077,"Archirondel, Jersey",49.22527885088672,-2.021311051490342,geographic_connected_component
ardbeg-point-united-kingdom,"Ardbeg Point, United Kingdom",landing_region_0007,"Achnaba, United Kingdom",55.858590024607395,-5.063594052558523,geographic_connected_component
ardgour-united-kingdom,"Ardgour, United Kingdom",landing_region_0007,"Achnaba, United Kingdom",56.72156793829049,-5.233662291455637,geographic_connected_component
ardmair-united-kingdom,"Ardmair, United Kingdom",landing_region_0078,"Ardmair, United Kingdom",57.93407860444327,-5.196211146111312,geographic_connected_component
ardnacross-united-kingdom,"Ardnacross, United Kingdom",landing_region_0007,"Achnaba, United Kingdom",55.476548995475824,-5.533417938480915,geographic_connected_component
ardneil-bay-united-kingdom,"Ardneil Bay, United Kingdom",landing_region_0007,"Achnaba, United Kingdom",55.693046380984796,-4.889375425976623,geographic_connected_component
ardvasar-united-kingdom,"Ardvasar, United Kingdom",landing_region_0007,"Achnaba, United Kingdom",57.059371673818994,-5.906464549211167,geographic_connected_component
ardyne-point-united-kingdom,"Ardyne Point, United Kingdom",landing_region_0007,"Achnaba, United Kingdom",55.86941315469073,-5.019990567822677,geographic_connected_component
arendal-norway,"Arendal, Norway",landing_region_0079,"Arendal, Norway",58.470047,8.758665999999655,geographic_connected_component
arica-chile,"Arica, Chile",landing_region_0080,"Arica, Chile",-18.473810108334412,-70.30671189622174,geographic_connected_component
arrecife-canary-islands-spain,"Arrecife, Canary Islands, Spain",landing_region_0081,"Arrecife, Canary Islands, Spain",28.959510000000208,-13.547600000000134,geographic_connected_component
arutua-french-polynesia,"Arutua, French Polynesia",landing_region_0082,"Arutua, French Polynesia",-15.289899868101953,-146.78615295672594,geographic_connected_component
ashkelon-israel,"Ashkelon, Israel",landing_region_0083,"Ashkelon, Israel",31.669509999999626,34.55601100000069,geographic_connected_component
asilah-morocco,"Asilah, Morocco",landing_region_0084,"Asilah, Morocco",35.47077689497444,-6.03576133261609,geographic_connected_component
atafona-brazil,"Atafona, Brazil",landing_region_0085,"Atafona, Brazil",-21.631160717587278,-41.027240450573984,geographic_connected_component
atafu-tokelau,"Atafu, Tokelau",landing_region_0086,"Atafu, Tokelau",-8.559089911025799,-172.5108858421898,geographic_connected_component
atalaia-do-norte-brazil,"Atalaia do Norte, Brazil",landing_region_0087,"Atalaia do Norte, Brazil",-4.366370093000299,-70.19319400999984,geographic_connected_component
athens-greece,"Athens, Greece",landing_region_0088,"Athens, Greece",37.97607760623158,23.73628788908491,geographic_connected_component
auckland-new-zealand,"Auckland, New Zealand",landing_region_0089,"Auckland, New Zealand",-36.88420899999972,174.7704190000004,geographic_connected_component
auki-solomon-islands,"Auki, Solomon Islands",landing_region_0090,"Auki, Solomon Islands",-8.774649361837039,160.70132758051585,geographic_connected_component
aupaluk-qc-canada,"Aupaluk, QC, Canada",landing_region_0091,"Aupaluk, QC, Canada",59.30574000000011,-69.59748899999985,geographic_connected_component
autazes-brazil,"Autazes, Brazil",landing_region_0092,"Autazes, Brazil",-3.580329971999896,-59.131660679999904,geographic_connected_component
auxiliadora-brazil,"Auxiliadora, Brazil",landing_region_0093,"Auxiliadora, Brazil",-6.249583144669121,-61.83829256374144,geographic_connected_component
awashimaura-japan,"Awashimaura, Japan",landing_region_0094,"Awashimaura, Japan",38.464632729999536,139.25283649999992,geographic_connected_component
aylesford-ns-canada,"Aylesford, NS, Canada",landing_region_0095,"Aylesford, NS, Canada",45.089458,-64.94827799999959,geographic_connected_component
ayre-of-cara-united-kingdom,"Ayre of Cara, United Kingdom",landing_region_0021,"Aikerness Bay, United Kingdom",58.83327167074278,-2.900119022684513,geographic_connected_component
baa-indonesia,"Baa, Indonesia",landing_region_0096,"Baa, Indonesia",-10.733340209244103,123.03526539632057,geographic_connected_component
baby-beach-aruba,"Baby Beach, Aruba",landing_region_0097,"Baby Beach, Aruba",12.414141621401608,-69.87868485568913,geographic_connected_component
baclayon-philippines,"Baclayon, Philippines",landing_region_0098,"Baclayon, Philippines",9.622559999999629,123.9135399999997,geographic_connected_component
bacolod-philippines,"Bacolod, Philippines",landing_region_0099,"Bacolod, Philippines",10.640738999999655,122.968957,geographic_connected_component
bacong-philippines,"Bacong, Philippines",landing_region_0100,"Bacong, Philippines",9.246330876791975,123.29495595749427,geographic_connected_component
bagre-brazil,"Bagre, Brazil",landing_region_0101,"Bagre, Brazil",-1.898843353,-50.20909264999976,geographic_connected_component
bahar-ic-caghaq-malta,"Bahar ic-Caghaq, Malta",landing_region_0102,"Bahar ic-Caghaq, Malta",35.93405994507042,14.45875539887589,geographic_connected_component
baie-comeau-qc-canada,"Baie-Comeau, QC, Canada",landing_region_0103,"Baie-Comeau, QC, Canada",49.22103999999976,-68.15247899999949,geographic_connected_component
baie-du-tombeau-mauritius,"Baie du Tombeau, Mauritius",landing_region_0104,"Baie du Tombeau, Mauritius",-20.122119652452948,57.49512645132687,geographic_connected_component
baie-jacotet-mauritius,"Baie Jacotet, Mauritius",landing_region_0104,"Baie du Tombeau, Mauritius",-20.473998881300506,57.48538507465786,geographic_connected_component
baie-longue-saint-martin,"Baie Longue, Saint Martin",landing_region_0105,"Baie Longue, Saint Martin",18.05965128120834,-63.14570622695726,geographic_connected_component
baie-mahault-guadeloupe,"Baie-Mahault, Guadeloupe",landing_region_0106,"Baie-Mahault, Guadeloupe",16.244479667931955,-61.5717247194846,geographic_connected_component
baile-mr-united-kingdom,"Baile Mòr, United Kingdom",landing_region_0007,"Achnaba, United Kingdom",56.329009999999805,-6.394689999999684,geographic_connected_component
baillif-guadeloupe,"Baillif, Guadeloupe",landing_region_0106,"Baie-Mahault, Guadeloupe",16.02894096235337,-61.71394454591877,geographic_connected_component
balboa-panama,"Balboa, Panama",landing_region_0107,"Balboa, Panama",8.950027090049982,-79.56667848090554,geographic_connected_component
balchik-bulgaria,"Balchik, Bulgaria",landing_region_0108,"Balchik, Bulgaria",43.41434082476211,28.167437093767106,geographic_connected_component
baler-philippines,"Baler, Philippines",landing_region_0109,"Baler, Philippines",15.76153,121.56019,geographic_connected_component
bali-indonesia,"Bali, Indonesia",landing_region_0110,"Bali, Indonesia",-8.410099999999819,115.69240000000046,geographic_connected_component
balikpapan-indonesia,"Balikpapan, Indonesia",landing_region_0111,"Balikpapan, Indonesia",-1.265365259496888,116.83119264290589,geographic_connected_component
balla-united-kingdom,"Balla, United Kingdom",landing_region_0112,"Balla, United Kingdom",57.0815220684469,-7.312176444016704,geographic_connected_component
ballesteros-philippines,"Ballesteros, Philippines",landing_region_0113,"Ballesteros, Philippines",18.40940773757574,121.51395299746949,geographic_connected_component
ballinesker-ireland,"Ballinesker, Ireland",landing_region_0114,"Ballinesker, Ireland",52.401459561554596,-6.364862661977602,geographic_connected_component
balluta-bay-malta,"Balluta Bay, Malta",landing_region_0102,"Bahar ic-Caghaq, Malta",35.93405994507042,14.380044517135529,geographic_connected_component
ballygrangans-ireland,"Ballygrangans, Ireland",landing_region_0114,"Ballinesker, Ireland",52.18407589401448,-6.558807837085033,geographic_connected_component
ballyhornan-united-kingdom,"Ballyhornan, United Kingdom",landing_region_0007,"Achnaba, United Kingdom",54.3021,-5.559439999999554,geographic_connected_component
ballywater-united-kingdom,"Ballywater, United Kingdom",landing_region_0007,"Achnaba, United Kingdom",54.542741580201856,-5.484394535704497,geographic_connected_component
bamfield-bc-canada,"Bamfield, BC, Canada",landing_region_0008,"Addenbroke Island, BC, Canada",48.832827880049535,-125.14150866980336,geographic_connected_component
banana-bay-virgin-islands-u-s-,"Banana Bay, Virgin Islands (U.S.)",landing_region_0115,"Banana Bay, Virgin Islands (U.S.)",18.328219740149585,-64.94377624225066,geographic_connected_component
bandaneria-indonesia,"Bandaneria, Indonesia",landing_region_0116,"Bandaneria, Indonesia",-4.520181235524493,129.8720525452634,geographic_connected_component
bandar-abbas-iran,"Bandar Abbas, Iran",landing_region_0117,"Bandar Abbas, Iran",27.187166634918263,56.2743507763158,geographic_connected_component
bandar-lampung-indonesia,"Bandar Lampung, Indonesia",landing_region_0118,"Bandar Lampung, Indonesia",-5.40921,105.2540970000002,geographic_connected_component
bandon-or-united-states,"Bandon, OR, United States",landing_region_0119,"Bandon, OR, United States",43.11855671756466,-124.40823607019432,geographic_connected_component
banff-united-kingdom,"Banff, United Kingdom",landing_region_0120,"Banff, United Kingdom",57.666865033116686,-2.523654445625608,geographic_connected_component
bangaram-india,"Bangaram, India",landing_region_0016,"Agatti, India",10.939880964178196,72.28722656010738,geographic_connected_component
bangga-indonesia,"Bangga, Indonesia",landing_region_0121,"Bangga, Indonesia",-1.600278223931106,123.5275341004328,geographic_connected_component
banjarmasin-indonesia,"Banjarmasin, Indonesia",landing_region_0122,"Banjarmasin, Indonesia",-3.327961488455888,114.60399695504718,geographic_connected_component
banjul-gambia,"Banjul, Gambia",landing_region_0123,"Banjul, Gambia",13.455945272538813,-16.58135933076553,geographic_connected_component
banyu-urip-indonesia,"Banyu Urip, Indonesia",landing_region_0124,"Banyu Urip, Indonesia",-7.271904005469731,112.71968042869285,geographic_connected_component
barbers-point-hi-united-states,"Barber’s Point, HI, United States",landing_region_0125,"Barber’s Point, HI, United States",21.313832454732772,-158.09434188207686,geographic_connected_component
barcelona-spain,"Barcelona, Spain",landing_region_0126,"Barcelona, Spain",41.38562799999929,2.168764,geographic_connected_component
barcelos-brazil,"Barcelos, Brazil",landing_region_0127,"Barcelos, Brazil",-0.974081207000161,-62.925769709999486,geographic_connected_component
bari-italy,"Bari, Italy",landing_region_0128,"Bari, Italy",41.12549190517644,16.866663849341016,geographic_connected_component
barka-oman,"Barka, Oman",landing_region_0030,"Al Bustan, Oman",23.678719999999707,57.88605,geographic_connected_component
barranquilla-colombia,"Barranquilla, Colombia",landing_region_0129,"Barranquilla, Colombia",10.94046235659719,-74.77975560247559,geographic_connected_component
barsebck-sweden,"Barsebäck, Sweden",landing_region_0051,"Alsgarde, Denmark",55.770378890641,12.955436151341473,geographic_connected_component
basseterre-saint-kitts-and-nevis,"Basseterre, Saint Kitts and Nevis",landing_region_0105,"Baie Longue, Saint Martin",17.29863882853097,-62.73121677449255,geographic_connected_component
bastia-france,"Bastia, France",landing_region_0130,"Bastia, France",42.69728299999956,9.450881000001129,geographic_connected_component
bata-equatorial-guinea,"Bata, Equatorial Guinea",landing_region_0131,"Bata, Equatorial Guinea",1.860069534049234,9.768231377937187,geographic_connected_component
batam-indonesia,"Batam, Indonesia",landing_region_0132,"Batam, Indonesia",1.066796188550793,104.01664054897991,geographic_connected_component
batangas-philippines,"Batangas, Philippines",landing_region_0133,"Batangas, Philippines",13.765553306627538,121.06492987806165,geographic_connected_component
batu-prahu-indonesia,"Batu Prahu, Indonesia",landing_region_0134,"Batu Prahu, Indonesia",-3.079924874677993,106.54745969362382,geographic_connected_component
bauang-philippines,"Bauang, Philippines",landing_region_0135,"Bauang, Philippines",16.51402480000008,120.35558309999966,geographic_connected_component
baubau-indonesia,"Baubau, Indonesia",landing_region_0136,"Baubau, Indonesia",-5.507063767817269,122.59688680062212,geographic_connected_component
bawean-indonesia,"Bawean, Indonesia",landing_region_0137,"Bawean, Indonesia",-5.79349087209221,112.5856147684581,geographic_connected_component
baxedes-greece,"Baxedes, Greece",landing_region_0138,"Baxedes, Greece",36.47742641187417,25.40234207588245,geographic_connected_component
bay-of-london-united-kingdom,"Bay of London, United Kingdom",landing_region_0021,"Aikerness Bay, United Kingdom",59.19229999999987,-2.766219999999832,geographic_connected_component
bay-of-tuquoy-united-kingdom,"Bay of Tuquoy, United Kingdom",landing_region_0021,"Aikerness Bay, United Kingdom",59.27976761462974,-2.939523291645224,geographic_connected_component
beausejour-guadeloupe,"Beausejour, Guadeloupe",landing_region_0106,"Baie-Mahault, Guadeloupe",16.303571371032675,-61.07386931576003,geographic_connected_component
beaver-island-mi-united-states,"Beaver Island, MI, United States",landing_region_0139,"Beaver Island, MI, United States",45.740931669999895,-85.53534242999994,geographic_connected_component
beculuk-indonesia,"Beculuk, Indonesia",landing_region_0140,"Beculuk, Indonesia",-8.615634129813643,114.09706372041353,geographic_connected_component
beigan-taiwan,"Beigan, Taiwan",landing_region_0141,"Beigan, Taiwan",26.225399999999755,119.98859,geographic_connected_component
beihai-china,"Beihai, China",landing_region_0142,"Beihai, China",21.484500999999632,109.10530900000046,geographic_connected_component
beira-mozambique,"Beira, Mozambique",landing_region_0143,"Beira, Mozambique",-19.82010899999981,34.851010000000386,geographic_connected_component
beirut-lebanon,"Beirut, Lebanon",landing_region_0144,"Beirut, Lebanon",33.89247448375563,35.485205347291476,geographic_connected_component
bejaia-algeria,"Bejaia, Algeria",landing_region_0145,"Bejaia, Algeria",36.75152580000031,5.05568370000011,geographic_connected_component
belize-city-belize,"Belize City, Belize",landing_region_0146,"Belize City, Belize",17.49554695903865,-88.18161378425482,geographic_connected_component
bella-bella-bc-canada,"Bella Bella, BC, Canada",landing_region_0147,"Bella Bella, BC, Canada",52.16114984088366,-128.14469976604073,geographic_connected_component
bella-coola-bc-canada,"Bella Coola, BC, Canada",landing_region_0148,"Bella Coola, BC, Canada",52.37214793561003,-126.75276468552713,geographic_connected_component
bellport-ny-united-states,"Bellport, NY, United States",landing_region_0149,"Bellport, NY, United States",40.75554434597573,-72.93781354794966,geographic_connected_component
belm-brazil,"Belém, Brazil",landing_region_0150,"Belém, Brazil",-1.458588999999789,-48.510443,geographic_connected_component
belm-do-solimes-brazil,"Belém do Solimões, Brazil",landing_region_0151,"Belém do Solimões, Brazil",-4.037852188000214,-69.52181003999964,geographic_connected_component
belmont-united-kingdom,"Belmont, United Kingdom",landing_region_0152,"Belmont, United Kingdom",60.6873599999995,-0.966809999999724,geographic_connected_component
benculuk-indonesia,"Benculuk, Indonesia",landing_region_0140,"Beculuk, Indonesia",-8.615634129813643,114.09706372041353,geographic_connected_component
benghazi-libya,"Benghazi, Libya",landing_region_0153,"Benghazi, Libya",32.11658375707056,20.066759238613432,geographic_connected_component
bengkalis-indonesia,"Bengkalis, Indonesia",landing_region_0154,"Bengkalis, Indonesia",1.489196199854866,102.08010445990314,geographic_connected_component
benjamin-constant-brazil,"Benjamin Constant, Brazil",landing_region_0087,"Atalaia do Norte, Brazil",-4.379887185000328,-70.0287800300003,geographic_connected_component
benton-harbor-mi-united-states,"Benton Harbor, MI, United States",landing_region_0155,"Benton Harbor, MI, United States",42.11623568999983,-86.45448807999998,geographic_connected_component
bequia-saint-vincent-and-the-grenadines,"Bequia, Saint Vincent and the Grenadines",landing_region_0156,"Bequia, Saint Vincent and the Grenadines",12.99756419905372,-61.24470659708128,geographic_connected_component
berbera-somalia,"Berbera, Somalia",landing_region_0157,"Berbera, Somalia",10.43511582934602,45.01088219296272,geographic_connected_component
bergen-norway,"Bergen, Norway",landing_region_0158,"Bergen, Norway",60.3907070886836,5.332751777721427,geographic_connected_component
beverwijk-netherlands,"Beverwijk, Netherlands",landing_region_0159,"Beverwijk, Netherlands",52.48631265079464,4.656906873847417,geographic_connected_component
biak-indonesia,"Biak, Indonesia",landing_region_0160,"Biak, Indonesia",-1.16347173352822,136.053298166411,geographic_connected_component
bic-qc-canada,"Bic, QC, Canada",landing_region_0161,"Bic, QC, Canada",48.37278902244084,-68.70931561967622,geographic_connected_component
bidos-brazil,"Óbidos, Brazil",landing_region_0040,"Alenquer, Brazil",-1.913198033000186,-55.51623128999993,geographic_connected_component
bilbao-spain,"Bilbao, Spain",landing_region_0162,"Bilbao, Spain",43.26834394430466,-2.946163911940864,geographic_connected_component
bima-indonesia,"Bima, Indonesia",landing_region_0163,"Bima, Indonesia",-8.464266,118.74490299999954,geographic_connected_component
bintan-indonesia,"Bintan, Indonesia",landing_region_0132,"Batam, Indonesia",1.136696382474185,104.42580634037192,geographic_connected_component
bintulu-malaysia,"Bintulu, Malaysia",landing_region_0164,"Bintulu, Malaysia",3.197004204897361,113.06835351166146,geographic_connected_component
bitra-india,"Bitra, India",landing_region_0165,"Bitra, India",11.59843321448516,72.18593318270166,geographic_connected_component
bizerte-tunisia,"Bizerte, Tunisia",landing_region_0166,"Bizerte, Tunisia",37.276349513656555,9.867352401468954,geographic_connected_component
blaabjerg-denmark,"Blaabjerg, Denmark",landing_region_0167,"Blaabjerg, Denmark",55.75167411423394,8.329194484059272,geographic_connected_component
black-river-jamaica,"Black River, Jamaica",landing_region_0168,"Black River, Jamaica",18.023692299999826,-77.84837204999995,geographic_connected_component
blackpool-united-kingdom,"Blackpool, United Kingdom",landing_region_0169,"Blackpool, United Kingdom",53.80866015617716,-3.05075368159855,geographic_connected_component
blackwaterfoot-united-kingdom,"Blackwaterfoot, United Kingdom",landing_region_0007,"Achnaba, United Kingdom",55.50195153980693,-5.33209972172162,geographic_connected_component
blind-channel-bc-canada,"Blind Channel, BC, Canada",landing_region_0008,"Addenbroke Island, BC, Canada",50.412765239933556,-125.50343684333376,geographic_connected_component
bliss-landing-bc-canada,"Bliss Landing, BC, Canada",landing_region_0008,"Addenbroke Island, BC, Canada",50.0357787156605,-124.81640872292657,geographic_connected_component
bluefields-nicaragua,"Bluefields, Nicaragua",landing_region_0170,"Bluefields, Nicaragua",11.991778023043153,-83.77146065844866,geographic_connected_component
boa-vista-brazil,"Boa Vista, Brazil",landing_region_0171,"Boa Vista, Brazil",2.8235100000003,-60.675832999999756,geographic_connected_component
boac-philippines,"Boac, Philippines",landing_region_0172,"Boac, Philippines",13.42908313305217,121.88473418104378,geographic_connected_component
boat-bluff-bc-canada,"Boat Bluff, BC, Canada",landing_region_0147,"Bella Bella, BC, Canada",52.643028264222046,-128.5238304427228,geographic_connected_component
boat-harbour-tas-australia,"Boat Harbour, TAS, Australia",landing_region_0173,"Boat Harbour, TAS, Australia",-40.95086828582336,145.62379919907835,geographic_connected_component
boca-raton-fl-united-states,"Boca Raton, FL, United States",landing_region_0174,"Boca Raton, FL, United States",26.350323169523403,-80.08894373592818,geographic_connected_component
bod-norway,"Bodø, Norway",landing_region_0175,"Bodø, Norway",67.28600571343614,14.400076793159448,geographic_connected_component
bogense-denmark,"Bogense, Denmark",landing_region_0176,"Bogense, Denmark",55.56778259,10.091399180000112,geographic_connected_component
bogo-philippines,"Bogo, Philippines",landing_region_0177,"Bogo, Philippines",11.045876992172815,124.00765240278447,geographic_connected_component
bold-point-bc-canada,"Bold Point, BC, Canada",landing_region_0008,"Addenbroke Island, BC, Canada",50.172390288106364,-125.1607065082164,geographic_connected_component
bomba-belize,"Bomba, Belize",landing_region_0146,"Belize City, Belize",17.925613252139954,-88.29445550119163,geographic_connected_component
bonifacio-france,"Bonifacio, France",landing_region_0023,"Ajaccio, France",41.39044730433591,9.168977271135239,geographic_connected_component
bonilla-island-bc-canada,"Bonilla Island, BC, Canada",landing_region_0178,"Bonilla Island, BC, Canada",53.49227407843297,-130.6144950742074,geographic_connected_component
boracay-philippines,"Boracay, Philippines",landing_region_0179,"Boracay, Philippines",11.949245,121.94481099999972,geographic_connected_component
borba-brazil,"Borba, Brazil",landing_region_0180,"Borba, Brazil",-4.392520854353163,-59.59452675344915,geographic_connected_component
borbby-strandbad-sweden,"Borbby Strandbad, Sweden",landing_region_0181,"Borbby Strandbad, Sweden",55.433900600000094,14.21575049999975,geographic_connected_component
bosaso-somalia,"Bosaso, Somalia",landing_region_0182,"Bosaso, Somalia",11.275567682156476,49.187930015152745,geographic_connected_component
bowser-bc-canada,"Bowser, BC, Canada",landing_region_0008,"Addenbroke Island, BC, Canada",49.44353602704172,-124.68672835476215,geographic_connected_component
bozyazi-turkey,"Bozyazi, Turkey",landing_region_0183,"Bozyazi, Turkey",36.09999800000024,32.966701999999856,geographic_connected_component
bp-clair-ridge-united-kingdom,"BP Clair Ridge, United Kingdom",landing_region_0184,"BP Clair Ridge, United Kingdom",60.44104932347154,-2.294930049347119,geographic_connected_component
branahuie-bay-united-kingdom,"Branahuie Bay, United Kingdom",landing_region_0185,"Branahuie Bay, United Kingdom",58.209061789126075,-6.310761137803691,geographic_connected_component
brean-united-kingdom,"Brean, United Kingdom",landing_region_0186,"Brean, United Kingdom",51.293736519285474,-3.010909959824159,geographic_connected_component
bredene-belgium,"Bredene, Belgium",landing_region_0187,"Bredene, Belgium",51.24638508954541,2.961888543364318,geographic_connected_component
brega-libya,"Brega, Libya",landing_region_0188,"Brega, Libya",30.378108493012235,19.576525210899817,geographic_connected_component
breivika-norway,"Breivika, Norway",landing_region_0189,"Breivika, Norway",68.73504741252802,16.553187508910593,geographic_connected_component
brekstad-norway,"Brekstad, Norway",landing_region_0190,"Brekstad, Norway",63.68841000000035,9.66311,geographic_connected_component
breves-brazil,"Breves, Brazil",landing_region_0101,"Bagre, Brazil",-1.683596191000075,-50.481981010000105,geographic_connected_component
brewers-bay-virgin-islands-u-s-,"Brewer's Bay, Virgin Islands (U.S.)",landing_region_0115,"Banana Bay, Virgin Islands (U.S.)",18.342402587783717,-64.97531918865539,geographic_connected_component
bridgetown-barbados,"Bridgetown, Barbados",landing_region_0191,"Bridgetown, Barbados",13.098954014787664,-59.61336009649245,geographic_connected_component
brighton-united-kingdom,"Brighton, United Kingdom",landing_region_0192,"Brighton, United Kingdom",50.828477682894714,-0.134434774132254,geographic_connected_component
brisbane-qld-australia,"Brisbane, QLD, Australia",landing_region_0193,"Brisbane, QLD, Australia",-27.468880000000254,153.0228269999997,geographic_connected_component
brnnysund-norway,"Brønnøysund, Norway",landing_region_0194,"Brønnøysund, Norway",65.47356212044562,12.207743809919723,geographic_connected_component
broadstairs-united-kingdom,"Broadstairs, United Kingdom",landing_region_0195,"Broadstairs, United Kingdom",51.358887043552194,1.439428684389187,geographic_connected_component
brondby-denmark,"Brondby, Denmark",landing_region_0051,"Alsgarde, Denmark",55.64724561414846,12.41490919050584,geographic_connected_component
brookhaven-ny-united-states,"Brookhaven, NY, United States",landing_region_0149,"Bellport, NY, United States",40.773148001414974,-72.91227645666531,geographic_connected_component
brookvale-nsw-australia,"Brookvale, NSW, Australia",landing_region_0041,"Alexandria, NSW, Australia",-33.76115742340548,151.27399050892973,geographic_connected_component
budai-taiwan,"Budai, Taiwan",landing_region_0196,"Budai, Taiwan",23.362789999999872,120.17046999999953,geographic_connected_component
bude-united-kingdom,"Bude, United Kingdom",landing_region_0197,"Bude, United Kingdom",50.82811048000128,-4.544404967232005,geographic_connected_component
buenaventura-colombia,"Buenaventura, Colombia",landing_region_0198,"Buenaventura, Colombia",3.883674880769303,-77.0403008760841,geographic_connected_component
buenavista-philippines,"Buenavista, Philippines",landing_region_0199,"Buenavista, Philippines",8.968922103740555,125.42073733924197,geographic_connected_component
buffalo-ny-united-states,"Buffalo, NY, United States",landing_region_0200,"Buffalo, NY, United States",42.88543648440449,-78.87846124712107,geographic_connected_component
bulan-philippines,"Bulan, Philippines",landing_region_0045,"Allen, Philippines",12.683687101726003,123.89612042234297,geographic_connected_component
bull-bay-jamaica,"Bull Bay, Jamaica",landing_region_0201,"Bull Bay, Jamaica",17.949940999999754,-76.66665199999949,geographic_connected_component
bulobulo-indonesia,"Bulobulo, Indonesia",landing_region_0011,"Aeng Batu Batu, Indonesia",-5.669066725303847,119.80926998945385,geographic_connected_component
bunkeflostand-sweden,"Bunkeflostand, Sweden",landing_region_0051,"Alsgarde, Denmark",55.55680878388793,12.918717427353373,geographic_connected_component
bunkum-bay-montserrat,"Bunkum Bay, Montserrat",landing_region_0202,"Bunkum Bay, Montserrat",16.772302184628998,-62.2201696006092,geographic_connected_component
buranga-indonesia,"Buranga, Indonesia",landing_region_0203,"Buranga, Indonesia",-4.792266637754579,122.85611021090891,geographic_connected_component
burgau-portugal,"Burgau, Portugal",landing_region_0204,"Burgau, Portugal",37.07339099999967,-8.774539999999584,geographic_connected_component
burravoe-united-kingdom,"Burravoe, United Kingdom",landing_region_0152,"Belmont, United Kingdom",60.49937,-1.055590000000232,geographic_connected_component
busan-south-korea,"Busan, South Korea",landing_region_0205,"Busan, South Korea",35.17014221411413,128.99929925728011,geographic_connected_component
bushehr-iran,"Bushehr, Iran",landing_region_0206,"Bushehr, Iran",28.970010723820973,50.842713999138304,geographic_connected_component
butedale-bc-canada,"Butedale, BC, Canada",landing_region_0207,"Butedale, BC, Canada",53.149832031963186,-128.70071345684704,geographic_connected_component
butler-bay-virgin-islands-u-s-,"Butler Bay, Virgin Islands (U.S.)",landing_region_0208,"Butler Bay, Virgin Islands (U.S.)",17.753369999999727,-64.8805299999999,geographic_connected_component
butuan-city-philippines,"Butuan City, Philippines",landing_region_0199,"Buenavista, Philippines",8.947615403087521,125.54061030119786,geographic_connected_component
byxelkrok-sweden,"Byxelkrok, Sweden",landing_region_0209,"Byxelkrok, Sweden",57.32475822033841,17.008488084544304,geographic_connected_component
cabimas-venezuela,"Cabimas, Venezuela",landing_region_0210,"Cabimas, Venezuela",10.395952645405428,-71.45109585115439,geographic_connected_component
cabinda-angola,"Cabinda, Angola",landing_region_0211,"Cabinda, Angola",-5.556549000000163,12.1898399999998,geographic_connected_component
cabo-espiritu-santo-argentina,"Cabo Espiritu Santo, Argentina",landing_region_0212,"Cabo Espiritu Santo, Argentina",-52.65889381307709,-68.60578536679905,geographic_connected_component
cacique-dominican-republic,"Cacique, Dominican Republic",landing_region_0213,"Cacique, Dominican Republic",18.69957399999976,-70.161736,geographic_connected_component
cacongo-angola,"Cacongo, Angola",landing_region_0211,"Cabinda, Angola",-5.23096999999984,12.140879999999665,geographic_connected_component
cacuaco-angola,"Cacuaco, Angola",landing_region_0214,"Cacuaco, Angola",-8.776676133719656,13.372330387259586,geographic_connected_component
cadiz-city-philippines,"Cadiz City, Philippines",landing_region_0099,"Bacolod, Philippines",10.950026359206582,123.29998688847635,geographic_connected_component
cagayan-de-oro-philippines,"Cagayan de Oro, Philippines",landing_region_0215,"Cagayan de Oro, Philippines",8.454228346754538,124.6319195386728,geographic_connected_component
cagdianao-philippines,"Cagdianao, Philippines",landing_region_0216,"Cagdianao, Philippines",9.498333545906151,125.86972003454434,geographic_connected_component
cagliari-italy,"Cagliari, Italy",landing_region_0217,"Cagliari, Italy",39.21530980337921,9.109345125948376,geographic_connected_component
cala-doliva-italy,"Cala d'Oliva, Italy",landing_region_0218,"Cala d'Oliva, Italy",41.08172316521694,8.336105703397353,geographic_connected_component
calama-brazil,"Calama, Brazil",landing_region_0219,"Calama, Brazil",-8.028764882726103,-62.87561474613567,geographic_connected_component
calatrava-philippines,"Calatrava, Philippines",landing_region_0220,"Calatrava, Philippines",12.602955744095647,122.08171170471684,geographic_connected_component
calbayog-philippines,"Calbayog, Philippines",landing_region_0221,"Calbayog, Philippines",12.069906190827878,124.60027893608729,geographic_connected_component
caldera-chile,"Caldera, Chile",landing_region_0222,"Caldera, Chile",-27.06199200000027,-70.812357,geographic_connected_component
calgary-united-kingdom,"Calgary, United Kingdom",landing_region_0007,"Achnaba, United Kingdom",56.582123807892486,-6.272382258741658,geographic_connected_component
callantsoog-netherlands,"Callantsoog, Netherlands",landing_region_0159,"Beverwijk, Netherlands",52.83692899999963,4.7007499999996,geographic_connected_component
calvi-france,"Calvi, France",landing_region_0130,"Bastia, France",42.56312,8.754733,geographic_connected_component
cama-beach-wa-united-states,"Cama Beach, WA, United States",landing_region_0223,"Cama Beach, WA, United States",48.14223038529169,-122.50972582333569,geographic_connected_component
camiguin-island-philippines,"Camiguin Island, Philippines",landing_region_0224,"Camiguin Island, Philippines",9.172531794727917,124.72892524992008,geographic_connected_component
campbell-river-bc-canada,"Campbell River, BC, Canada",landing_region_0008,"Addenbroke Island, BC, Canada",50.02461,-125.24817,geographic_connected_component
camuri-venezuela,"Camuri, Venezuela",landing_region_0225,"Camuri, Venezuela",10.60645000000013,-66.87819200000038,geographic_connected_component
cancn-mexico,"Cancún, Mexico",landing_region_0226,"Cancún, Mexico",21.095659999999558,-86.76756599999986,geographic_connected_component
candelaria-canary-islands-spain,"Candelaria, Canary Islands, Spain",landing_region_0227,"Candelaria, Canary Islands, Spain",28.35553820749914,-16.37174033863666,geographic_connected_component
candikusuma-indonesia,"Candikusuma, Indonesia",landing_region_0140,"Beculuk, Indonesia",-8.294580838185764,114.52724417391767,geographic_connected_component
canefield-dominica,"Canefield, Dominica",landing_region_0228,"Canefield, Dominica",15.303329396919429,-61.384843216557165,geographic_connected_component
cannes-france,"Cannes, France",landing_region_0229,"Cannes, France",43.552927166028965,7.01735442043418,geographic_connected_component
canneto-italy,"Canneto, Italy",landing_region_0044,"Alicudi Porto, Italy",38.488436612601895,14.963612056874782,geographic_connected_component
canouan-saint-vincent-and-the-grenadines,"Canouan, Saint Vincent and the Grenadines",landing_region_0156,"Bequia, Saint Vincent and the Grenadines",12.699637527038245,-61.33895701859438,geographic_connected_component
cape-daguilar-china,"Cape D’Aguilar, China",landing_region_0230,"Cape D’Aguilar, China",22.208065,114.26028099999986,geographic_connected_component
cape-jervis-sa-australia,"Cape Jervis, SA, Australia",landing_region_0231,"Cape Jervis, SA, Australia",-35.60320283999976,138.1037266000003,geographic_connected_component
cape-ray-nl-canada,"Cape Ray, NL, Canada",landing_region_0232,"Cape Ray, NL, Canada",47.636672999999746,-59.284726,geographic_connected_component
cape-roger-curtis-bc-canada,"Cape Roger Curtis, BC, Canada",landing_region_0008,"Addenbroke Island, BC, Canada",49.34328349000002,-123.42890269999995,geographic_connected_component
cape-town-south-africa,"Cape Town, South Africa",landing_region_0233,"Cape Town, South Africa",-33.91908600000014,18.421980999999718,geographic_connected_component
capesterre-belle-eau-guadeloupe,"Capesterre-Belle-Eau, Guadeloupe",landing_region_0106,"Baie-Mahault, Guadeloupe",16.04242108270618,-61.56468928055855,geographic_connected_component
capraia-isola-italy,"Capraia Isola, Italy",landing_region_0234,"Capraia Isola, Italy",43.04826179309501,9.842201117068242,geographic_connected_component
capri-strand-sweden,"Capri Strand, Sweden",landing_region_0235,"Capri Strand, Sweden",58.96833839999996,11.118404899999714,geographic_connected_component
car-nicobar-india,"Car Nicobar, India",landing_region_0236,"Car Nicobar, India",9.177491191419044,92.81644398821722,geographic_connected_component
caracara-brazil,"Caracaraí, Brazil",landing_region_0237,"Caracaraí, Brazil",1.823914555000229,-61.13126438999985,geographic_connected_component
carana-seychelles,"Carana, Seychelles",landing_region_0238,"Carana, Seychelles",-4.565748999999809,55.45302899999983,geographic_connected_component
carcavelos-portugal,"Carcavelos, Portugal",landing_region_0239,"Carcavelos, Portugal",38.69016282606887,-9.331559779091531,geographic_connected_component
carloforte-italy,"Carloforte, Italy",landing_region_0240,"Carloforte, Italy",39.14552546025926,8.302684658371321,geographic_connected_component
carpano-venezuela,"Carúpano, Venezuela",landing_region_0241,"Carúpano, Venezuela",10.66679985529808,-63.25052793004462,geographic_connected_component
carriacou-grenada,"Carriacou, Grenada",landing_region_0156,"Bequia, Saint Vincent and the Grenadines",12.473707095397195,-61.47861756418857,geographic_connected_component
carrickfergus-united-kingdom,"Carrickfergus, United Kingdom",landing_region_0007,"Achnaba, United Kingdom",54.71367039332284,-5.808173603216411,geographic_connected_component
cartagena-chile,"Cartagena, Chile",landing_region_0242,"Cartagena, Chile",-33.54688294154119,-71.6000943975144,geographic_connected_component
cartagena-colombia,"Cartagena, Colombia",landing_region_0243,"Cartagena, Colombia",10.386695392812182,-75.50568282259698,geographic_connected_component
casablanca-morocco,"Casablanca, Morocco",landing_region_0244,"Casablanca, Morocco",33.605381,-7.631940000000245,geographic_connected_component
castlefreke-ireland,"Castlefreke, Ireland",landing_region_0245,"Castlefreke, Ireland",51.57267338201398,-8.963843834000034,geographic_connected_component
castries-saint-lucia,"Castries, Saint Lucia",landing_region_0246,"Castries, Saint Lucia",13.994222056803721,-61.00681614060512,geographic_connected_component
cat-island-bahamas,"Cat Island, Bahamas",landing_region_0247,"Cat Island, Bahamas",24.403328545640797,-75.52589765202663,geographic_connected_component
catania-italy,"Catania, Italy",landing_region_0248,"Catania, Italy",37.51158912057901,15.067446373923563,geographic_connected_component
caticlan-philippines,"Caticlan, Philippines",landing_region_0179,"Boracay, Philippines",11.93092899999979,121.95077700000043,geographic_connected_component
caves-point-bahamas,"Caves Point, Bahamas",landing_region_0249,"Caves Point, Bahamas",25.068453472867645,-77.45299589622708,geographic_connected_component
cavite-philippines,"Cavite, Philippines",landing_region_0250,"Cavite, Philippines",14.286268059205984,120.82010583274857,geographic_connected_component
cayenne-french-guiana,"Cayenne, French Guiana",landing_region_0251,"Cayenne, French Guiana",4.922419999999891,-52.31345310000006,geographic_connected_component
cayeux-sur-mer-france,"Cayeux-sur-Mer, France",landing_region_0252,"Cayeux-sur-Mer, France",50.17880871289953,1.493432552382221,geographic_connected_component
cayman-brac-cayman-islands,"Cayman Brac, Cayman Islands",landing_region_0253,"Cayman Brac, Cayman Islands",19.69033315700396,-79.87764017468034,geographic_connected_component
cebu-philippines,"Cebu, Philippines",landing_region_0254,"Cebu, Philippines",10.310033388932034,123.89461537348717,geographic_connected_component
chabahar-iran,"Chabahar, Iran",landing_region_0255,"Chabahar, Iran",25.298225757613157,60.62962112850147,geographic_connected_component
chaguaramas-trinidad-and-tobago,"Chaguaramas, Trinidad and Tobago",landing_region_0256,"Chaguaramas, Trinidad and Tobago",10.686160924629455,-61.65080982501897,geographic_connected_component
chai-wan-china,"Chai Wan, China",landing_region_0230,"Cape D’Aguilar, China",22.26885000000032,114.23935699999967,geographic_connected_component
changi-north-singapore,"Changi North, Singapore",landing_region_0132,"Batam, Indonesia",1.389044778364265,103.9870122887188,geographic_connected_component
changi-singapore,"Changi, Singapore",landing_region_0132,"Batam, Indonesia",1.373499297382436,104.00411406347581,geographic_connected_component
changi-south-singapore,"Changi South, Singapore",landing_region_0132,"Batam, Indonesia",1.389044778364265,103.9870122887188,geographic_connected_component
chania-greece,"Chania, Greece",landing_region_0257,"Chania, Greece",35.51180510130388,24.01216659989987,geographic_connected_component
charlevoix-mi-united-states,"Charlevoix, MI, United States",landing_region_0258,"Charlevoix, MI, United States",45.31806299999966,-85.2584,geographic_connected_component
chateaubelair-saint-vincent-and-the-grenadines,"Chateaubelair, Saint Vincent and the Grenadines",landing_region_0156,"Bequia, Saint Vincent and the Grenadines",13.290916333074358,-61.24083697091661,geographic_connected_component
chatham-point-bc-canada,"Chatham Point, BC, Canada",landing_region_0008,"Addenbroke Island, BC, Canada",50.33139503733066,-125.44561591823906,geographic_connected_component
chenega-ak-united-states,"Chenega, AK, United States",landing_region_0259,"Chenega, AK, United States",60.065087981861794,-148.01078611085993,geographic_connected_component
chennai-india,"Chennai, India",landing_region_0260,"Chennai, India",13.06348539106232,80.24308379664043,geographic_connected_component
cherating-malaysia,"Cherating, Malaysia",landing_region_0261,"Cherating, Malaysia",4.130238298773818,103.39365333405976,geographic_connected_component
chetlat-india,"Chetlat, India",landing_region_0058,"Amini, India",11.689816748289662,72.71064539702743,geographic_connected_component
chicago-il-united-states,"Chicago, IL, United States",landing_region_0262,"Chicago, IL, United States",41.88415000000034,-87.632409,geographic_connected_component
chichijima-japan,"Chichijima, Japan",landing_region_0263,"Chichijima, Japan",27.06647506480611,142.20407854982358,geographic_connected_component
chichiriviche-venezuela,"Chichiriviche, Venezuela",landing_region_0264,"Chichiriviche, Venezuela",10.928572840410887,-68.28449653190309,geographic_connected_component
chignik-bay-ak-united-states,"Chignik Bay, AK, United States",landing_region_0265,"Chignik Bay, AK, United States",56.29443999999985,-158.4088100000004,geographic_connected_component
chignik-lagoon-ak-united-states,"Chignik Lagoon, AK, United States",landing_region_0265,"Chignik Bay, AK, United States",56.32126,-158.50723,geographic_connected_component
chignik-lake-ak-united-states,"Chignik Lake, AK, United States",landing_region_0265,"Chignik Bay, AK, United States",56.25489,-158.77209,geographic_connected_component
chikura-japan,"Chikura, Japan",landing_region_0266,"Chikura, Japan",34.976657744880164,139.95466259014782,geographic_connected_component
chindini-comoros,"Chindini, Comoros",landing_region_0267,"Chindini, Comoros",-11.923498177297583,43.48910592725337,geographic_connected_component
chipiona-spain,"Chipiona, Spain",landing_region_0268,"Chipiona, Spain",36.731307150406245,-6.428876288504763,geographic_connected_component
chisasibi-qc-canada,"Chisasibi, QC, Canada",landing_region_0269,"Chisasibi, QC, Canada",53.773609,-78.89346699999984,geographic_connected_component
chongming-china,"Chongming, China",landing_region_0270,"Chongming, China",31.619883221433906,121.39520308159317,geographic_connected_component
christchurch-new-zealand,"Christchurch, New Zealand",landing_region_0271,"Christchurch, New Zealand",-43.5320544000003,172.63622540000023,geographic_connected_component
christiansted-virgin-islands-u-s-,"Christiansted, Virgin Islands (U.S.)",landing_region_0208,"Butler Bay, Virgin Islands (U.S.)",17.746660579229843,-64.70315141271153,geographic_connected_component
chumphon-thailand,"Chumphon, Thailand",landing_region_0272,"Chumphon, Thailand",10.497659999999804,99.17812300000011,geographic_connected_component
chung-hom-kok-china,"Chung Hom Kok, China",landing_region_0230,"Cape D’Aguilar, China",22.222049985803473,114.2030206766037,geographic_connected_component
cienfuegos-cuba,"Cienfuegos, Cuba",landing_region_0273,"Cienfuegos, Cuba",22.145949778587273,-80.44896345712418,geographic_connected_component
cirebon-indonesia,"Cirebon, Indonesia",landing_region_0274,"Cirebon, Indonesia",-6.716666684587929,108.5666651853077,geographic_connected_component
ciudad-lzaro-crdenas-mexico,"Ciudad Lázaro Cárdenas, Mexico",landing_region_0275,"Ciudad Lázaro Cárdenas, Mexico",17.956770832775955,-102.19434697958006,geographic_connected_component
civitavecchia-italy,"Civitavecchia, Italy",landing_region_0276,"Civitavecchia, Italy",42.091130652249426,11.796843222099477,geographic_connected_component
clarence-town-bahamas,"Clarence Town, Bahamas",landing_region_0277,"Clarence Town, Bahamas",23.09834303441083,-74.96618125165993,geographic_connected_component
claveria-philippines,"Claveria, Philippines",landing_region_0278,"Claveria, Philippines",18.606230000000362,121.08238200000135,geographic_connected_component
clinton-wa-united-states,"Clinton, WA, United States",landing_region_0223,"Cama Beach, WA, United States",47.979469999999125,-122.357431,geographic_connected_component
clonshaugh-ireland,"Clonshaugh, Ireland",landing_region_0279,"Clonshaugh, Ireland",53.41005646403016,-6.197919420866779,geographic_connected_component
clovelly-nsw-australia,"Clovelly, NSW, Australia",landing_region_0041,"Alexandria, NSW, Australia",-33.90954432999976,151.2577588980582,geographic_connected_component
cloverdale-or-united-states,"Cloverdale, OR, United States",landing_region_0280,"Cloverdale, OR, United States",45.23105362306843,-123.95636439138565,geographic_connected_component
coal-harbour-bc-canada,"Coal Harbour, BC, Canada",landing_region_0008,"Addenbroke Island, BC, Canada",50.599384789246784,-127.58161843079546,geographic_connected_component
coari-brazil,"Coari, Brazil",landing_region_0281,"Coari, Brazil",-4.091941809999533,-63.14769152,geographic_connected_component
cockburn-town-bahamas,"Cockburn Town, Bahamas",landing_region_0282,"Cockburn Town, Bahamas",24.05253194857149,-74.53024406048189,geographic_connected_component
codroy-nl-canada,"Codroy, NL, Canada",landing_region_0232,"Cape Ray, NL, Canada",47.88156899999932,-59.3919299999996,geographic_connected_component
coffman-cove-ak-united-states,"Coffman Cove, AK, United States",landing_region_0283,"Coffman Cove, AK, United States",56.015201999999896,-132.829514,geographic_connected_component
coilleag-united-kingdom,"Coilleag, United Kingdom",landing_region_0112,"Balla, United Kingdom",57.07361367890789,-7.302215513573107,geographic_connected_component
cold-bay-ak-united-states,"Cold Bay, AK, United States",landing_region_0284,"Cold Bay, AK, United States",55.20405000000046,-162.70403,geographic_connected_component
coleraine-united-kingdom,"Coleraine, United Kingdom",landing_region_0285,"Coleraine, United Kingdom",55.13073527680774,-6.676190566430063,geographic_connected_component
collo-algeria,"Collo, Algeria",landing_region_0286,"Collo, Algeria",37.00296280298153,6.557241714400392,geographic_connected_component
coln-panama,"Colón, Panama",landing_region_0287,"Colón, Panama",9.3537196548148,-79.90002785413272,geographic_connected_component
colombo-sri-lanka,"Colombo, Sri Lanka",landing_region_0288,"Colombo, Sri Lanka",6.926734329228445,79.87199030952667,geographic_connected_component
comox-bc-canada,"Comox, BC, Canada",landing_region_0008,"Addenbroke Island, BC, Canada",49.67351299999971,-124.928266,geographic_connected_component
conakry-guinea,"Conakry, Guinea",landing_region_0289,"Conakry, Guinea",9.513624453698883,-13.70382230673977,geographic_connected_component
condado-beach-pr-united-states,"Condado Beach, PR, United States",landing_region_0290,"Condado Beach, PR, United States",18.459899231626796,-66.07795512628769,geographic_connected_component
conference-grenada,"Conference, Grenada",landing_region_0156,"Bequia, Saint Vincent and the Grenadines",12.161209900388293,-61.60638846976845,geographic_connected_component
conil-de-la-frontera-spain,"Conil de la Frontera, Spain",landing_region_0268,"Chipiona, Spain",36.2765632358394,-6.087226139907921,geographic_connected_component
constitucin-chile,"Constitución, Chile",landing_region_0291,"Constitución, Chile",-35.31837099999989,-72.416068,geographic_connected_component
copa-club-jamaica,"Copa Club, Jamaica",landing_region_0201,"Bull Bay, Jamaica",17.942952785882994,-76.68936118328712,geographic_connected_component
cordova-ak-united-states,"Cordova, AK, United States",landing_region_0292,"Cordova, AK, United States",60.54274832427757,-145.75467386865444,geographic_connected_component
cordova-bay-bc-canada,"Cordova Bay, BC, Canada",landing_region_0293,"Cordova Bay, BC, Canada",48.520397324657175,-123.36724700802326,geographic_connected_component
corfu-greece,"Corfu, Greece",landing_region_0012,"Aethos, Greece",39.61929827180403,19.9194937179377,geographic_connected_component
cork-ireland,"Cork, Ireland",landing_region_0245,"Castlefreke, Ireland",51.89833468681305,-8.472771324965343,geographic_connected_component
coro-venezuela,"Coro, Venezuela",landing_region_0294,"Coro, Venezuela",11.402807398422437,-69.67781829876685,geographic_connected_component
coron-philippines,"Coron, Philippines",landing_region_0295,"Coron, Philippines",12.004960160699559,120.20067267780973,geographic_connected_component
corralejo-canary-islands-spain,"Corralejo, Canary Islands, Spain",landing_region_0081,"Arrecife, Canary Islands, Spain",28.728626550000264,-13.86482676999976,geographic_connected_component
corran-united-kingdom,"Corran, United Kingdom",landing_region_0007,"Achnaba, United Kingdom",56.722525753369865,-5.245381033153955,geographic_connected_component
corrie-united-kingdom,"Corrie, United Kingdom",landing_region_0007,"Achnaba, United Kingdom",55.643649778816055,-5.141426028670615,geographic_connected_component
corvo-portugal,"Corvo, Portugal",landing_region_0296,"Corvo, Portugal",39.67193532519225,-31.110548256901776,geographic_connected_component
cotonou-benin,"Cotonou, Benin",landing_region_0297,"Cotonou, Benin",6.356578143137007,2.43991625688431,geographic_connected_component
cousins-inlet-bc-canada,"Cousins Inlet, BC, Canada",landing_region_0147,"Bella Bella, BC, Canada",52.26794328251682,-127.79057362556645,geographic_connected_component
coxs-bazar-bangladesh,"Cox’s Bazar, Bangladesh",landing_region_0298,"Cox’s Bazar, Bangladesh",21.42917958893072,91.99493094027171,geographic_connected_component
craighouse-united-kingdom,"Craighouse, United Kingdom",landing_region_0007,"Achnaba, United Kingdom",55.833671668737324,-5.953827796908559,geographic_connected_component
crescent-beach-ri-united-states,"Crescent Beach, RI, United States",landing_region_0299,"Crescent Beach, RI, United States",41.1919576902494,-71.59367589228837,geographic_connected_component
cristbal-panama,"Cristóbal, Panama",landing_region_0287,"Colón, Panama",9.350855245143212,-79.90280507171931,geographic_connected_component
crockness-united-kingdom,"Crockness, United Kingdom",landing_region_0021,"Aikerness Bay, United Kingdom",58.82273999999966,-3.172020000000312,geographic_connected_component
crooked-island-bahamas,"Crooked Island, Bahamas",landing_region_0300,"Crooked Island, Bahamas",22.629711836470232,-74.19499039172877,geographic_connected_component
crotone-italy,"Crotone, Italy",landing_region_0301,"Crotone, Italy",39.080669,17.12715000000025,geographic_connected_component
crown-haven-bahamas,"Crown Haven, Bahamas",landing_region_0302,"Crown Haven, Bahamas",26.912504093122344,-77.82195315438533,geographic_connected_component
cruzeiro-do-sul-brazil,"Cruzeiro do Sul, Brazil",landing_region_0303,"Cruzeiro do Sul, Brazil",-7.625022373429889,-72.67642607425898,geographic_connected_component
cuman-venezuela,"Cumaná, Venezuela",landing_region_0304,"Cumaná, Venezuela",10.454299429434665,-64.18211906697175,geographic_connected_component
curralinho-brazil,"Curralinho, Brazil",landing_region_0101,"Bagre, Brazil",-1.812160472999909,-49.7980208799999,geographic_connected_component
current-bahamas,"Current, Bahamas",landing_region_0305,"Current, Bahamas",25.407832959532634,-76.7876643363042,geographic_connected_component
curu-brazil,"Curuá, Brazil",landing_region_0040,"Alenquer, Brazil",-1.890297457000427,-55.12010550000016,geographic_connected_component
cusbay-united-kingdom,"Cusbay, United Kingdom",landing_region_0021,"Aikerness Bay, United Kingdom",59.22463999999973,-2.783989999999398,geographic_connected_component
daanbantayan-philippines,"Daanbantayan, Philippines",landing_region_0177,"Bogo, Philippines",11.246494999999399,124.01730899999959,geographic_connected_component
dadeng-island-china,"Dadeng Island, China",landing_region_0306,"Dadeng Island, China",24.55673096336322,118.30096699232894,geographic_connected_component
daet-philippines,"Daet, Philippines",landing_region_0307,"Daet, Philippines",14.116616393710665,122.94988948023871,geographic_connected_component
dakar-senegal,"Dakar, Senegal",landing_region_0308,"Dakar, Senegal",14.686597713745336,-17.451915354680473,geographic_connected_component
dakhla-morocco,"Dakhla, Morocco",landing_region_0309,"Dakhla, Morocco",23.721081,-15.934426000000126,geographic_connected_component
dalian-china,"Dalian, China",landing_region_0310,"Dalian, China",38.94381,121.57652300000039,geographic_connected_component
danang-vietnam,"Danang, Vietnam",landing_region_0311,"Danang, Vietnam",16.051559827539638,108.21474366875417,geographic_connected_component
dania-beach-fl-united-states,"Dania Beach, FL, United States",landing_region_0174,"Boca Raton, FL, United States",26.052316286427192,-80.14394128131609,geographic_connected_component
dar-es-salaam-tanzania,"Dar Es Salaam, Tanzania",landing_region_0312,"Dar Es Salaam, Tanzania",-6.823229228025631,39.26967532258757,geographic_connected_component
daru-papua-new-guinea,"Daru, Papua New Guinea",landing_region_0313,"Daru, Papua New Guinea",-9.078178461616169,143.2099825496737,geographic_connected_component
darwin-nt-australia,"Darwin, NT, Australia",landing_region_0314,"Darwin, NT, Australia",-12.467490679762426,130.8431456073319,geographic_connected_component
das-island-united-arab-emirates,"Das Island, United Arab Emirates",landing_region_0315,"Das Island, United Arab Emirates",25.152635742226693,52.86595475335555,geographic_connected_component
davao-philippines,"Davao, Philippines",landing_region_0316,"Davao, Philippines",7.079988883160643,125.61277821882337,geographic_connected_component
dawu-taiwan,"Dawu, Taiwan",landing_region_0317,"Dawu, Taiwan",22.340450000000153,120.88978000000047,geographic_connected_component
deception-qc-canada,"Deception, QC, Canada",landing_region_0318,"Deception, QC, Canada",62.11487599999987,-74.6301440000009,geographic_connected_component
deep-water-bay-china,"Deep Water Bay, China",landing_region_0230,"Cape D’Aguilar, China",22.24943935172405,114.18397772134277,geographic_connected_component
deeside-clwyd-united-kingdom,"Deeside Clwyd, United Kingdom",landing_region_0169,"Blackpool, United Kingdom",53.201726854005564,-3.027560338653928,geographic_connected_component
denman-island-bc-canada,"Denman Island, BC, Canada",landing_region_0008,"Addenbroke Island, BC, Canada",49.49345509252578,-124.71356875282478,geographic_connected_component
denpasar-indonesia,"Denpasar, Indonesia",landing_region_0110,"Bali, Indonesia",-8.65666,115.22151899999977,geographic_connected_component
derna-libya,"Derna, Libya",landing_region_0319,"Derna, Libya",32.76355277517541,22.639218353759222,geographic_connected_component
dhangethi-maldives,"Dhangethi, Maldives",landing_region_0320,"Dhangethi, Maldives",3.608093477293043,72.95558895917019,geographic_connected_component
dhuvaafaru-maldives,"Dhuvaafaru, Maldives",landing_region_0321,"Dhuvaafaru, Maldives",5.629270004148423,73.04136330700179,geographic_connected_component
diba-oman,"Diba, Oman",landing_region_0322,"Diba, Oman",25.616974601949348,56.258042194119106,geographic_connected_component
dickenson-bay-antigua-and-barbuda,"Dickenson Bay, Antigua and Barbuda",landing_region_0202,"Bunkum Bay, Montserrat",17.159562620478198,-61.84685007059131,geographic_connected_component
diego-garcia-british-indian-ocean-territory,"Diego Garcia, British Indian Ocean Territory",landing_region_0323,"Diego Garcia, British Indian Ocean Territory",-7.333330000000503,72.416672,geographic_connected_component
digha-india,"Digha, India",landing_region_0324,"Digha, India",21.621856500843982,87.50654093847432,geographic_connected_component
dikson-russia,"Dikson, Russia",landing_region_0325,"Dikson, Russia",73.50769999999989,80.531,geographic_connected_component
dili-timor-leste,"Dili, Timor-Leste",landing_region_0326,"Dili, Timor-Leste",-8.570689999999674,125.580711,geographic_connected_component
dillingham-ak-united-states,"Dillingham, AK, United States",landing_region_0327,"Dillingham, AK, United States",59.04498753999991,-158.5087958,geographic_connected_component
dingwall-ns-canada,"Dingwall, NS, Canada",landing_region_0328,"Dingwall, NS, Canada",46.896659999999684,-60.469309999999496,geographic_connected_component
dipolog-city-philippines,"Dipolog City, Philippines",landing_region_0329,"Dipolog City, Philippines",8.564097021577123,123.33503132573671,geographic_connected_component
ditella-italy,"Ditella, Italy",landing_region_0044,"Alicudi Porto, Italy",38.642542955425235,15.076102109522786,geographic_connected_component
djibouti-city-djibouti,"Djibouti City, Djibouti",landing_region_0330,"Djibouti City, Djibouti",11.594678044710776,43.14799288765091,geographic_connected_component
dodge-cove-bc-canada,"Dodge Cove, BC, Canada",landing_region_0178,"Bonilla Island, BC, Canada",54.287784565961346,-130.38751116964698,geographic_connected_component
doha-qatar,"Doha, Qatar",landing_region_0031,"Al Daayen, Qatar",25.294340911551398,51.51937367603625,geographic_connected_component
domburg-netherlands,"Domburg, Netherlands",landing_region_0331,"Domburg, Netherlands",51.56395317878603,3.496165508627551,geographic_connected_component
donaghadee-united-kingdom,"Donaghadee, United Kingdom",landing_region_0007,"Achnaba, United Kingdom",54.642754000000195,-5.538752000000191,geographic_connected_component
dongyin-taiwan,"Dongyin, Taiwan",landing_region_0332,"Dongyin, Taiwan",26.367330000000443,120.4929700000004,geographic_connected_component
douala-cameroon,"Douala, Cameroon",landing_region_0333,"Douala, Cameroon",4.047149594894643,9.70631735929773,geographic_connected_component
douglas-isle-of-man,"Douglas, Isle of Man",landing_region_0334,"Douglas, Isle of Man",54.15027516173659,-4.480879621608963,geographic_connected_component
down-craig-united-kingdom,"Down Craig, United Kingdom",landing_region_0007,"Achnaba, United Kingdom",55.78015567878292,-4.900459402499686,geographic_connected_component
dragor-denmark,"Dragor, Denmark",landing_region_0051,"Alsgarde, Denmark",55.59353552411722,12.670182447167821,geographic_connected_component
drbak-norway,"Drøbak, Norway",landing_region_0335,"Drøbak, Norway",59.664530734634965,10.630839956892295,geographic_connected_component
dryad-point-bc-canada,"Dryad Point, BC, Canada",landing_region_0147,"Bella Bella, BC, Canada",52.18517417339168,-128.11186385086688,geographic_connected_component
duart-bay-united-kingdom,"Duart Bay, United Kingdom",landing_region_0007,"Achnaba, United Kingdom",56.45583872337901,-5.669355342181571,geographic_connected_component
duba-saudi-arabia,"Duba, Saudi Arabia",landing_region_0336,"Duba, Saudi Arabia",27.354018999999465,35.69652899999984,geographic_connected_component
dubai-united-arab-emirates,"Dubai, United Arab Emirates",landing_region_0337,"Dubai, United Arab Emirates",25.269340274513237,55.308433491830726,geographic_connected_component
dublin-ireland,"Dublin, Ireland",landing_region_0279,"Clonshaugh, Ireland",53.348045408252375,-6.248261182079236,geographic_connected_component
dubrovnik-croatia,"Dubrovnik, Croatia",landing_region_0338,"Dubrovnik, Croatia",42.64186152795143,18.106409064843877,geographic_connected_component
dumaguete-philippines,"Dumaguete, Philippines",landing_region_0100,"Bacong, Philippines",9.295611105669924,123.28143221412073,geographic_connected_component
dumai-indonesia,"Dumai, Indonesia",landing_region_0339,"Dumai, Indonesia",1.665607287285858,101.44763310682389,geographic_connected_component
dumpton-gap-united-kingdom,"Dumpton Gap, United Kingdom",landing_region_0195,"Broadstairs, United Kingdom",51.358582140301266,1.439331028208309,geographic_connected_component
duncan-town-bahamas,"Duncan Town, Bahamas",landing_region_0340,"Duncan Town, Bahamas",22.183261833926533,-75.73346586435832,geographic_connected_component
duncanby-bc-canada,"Duncanby, BC, Canada",landing_region_0008,"Addenbroke Island, BC, Canada",51.40557093447968,-127.64481414210549,geographic_connected_component
dunnet-bay-united-kingdom,"Dunnet Bay, United Kingdom",landing_region_0021,"Aikerness Bay, United Kingdom",58.615311733571986,-3.346212456667815,geographic_connected_component
dunnet-head-united-kingdom,"Dunnet Head, United Kingdom",landing_region_0021,"Aikerness Bay, United Kingdom",58.670331191552904,-3.376583528902636,geographic_connected_component
dunvegan-united-kingdom,"Dunvegan, United Kingdom",landing_region_0112,"Balla, United Kingdom",57.43632161635939,-6.581659383399854,geographic_connected_component
durres-albania,"Durres, Albania",landing_region_0341,"Durres, Albania",41.316693174085714,19.45006045673864,geographic_connected_component
duynefontein-south-africa,"Duynefontein, South Africa",landing_region_0233,"Cape Town, South Africa",-33.69332250414625,18.449914853508062,geographic_connected_component
dzhubga-russia,"Dzhubga, Russia",landing_region_0342,"Dzhubga, Russia",44.32520489999982,38.660832300000735,geographic_connected_component
eastbourne-bc-canada,"Eastbourne, BC, Canada",landing_region_0008,"Addenbroke Island, BC, Canada",49.39615688202526,-123.43478847783001,geographic_connected_component
echo-bay-bc-canada,"Echo Bay, BC, Canada",landing_region_0008,"Addenbroke Island, BC, Canada",50.74991847293468,-126.49734823073759,geographic_connected_component
edith-point-bc-canada,"Edith Point, BC, Canada",landing_region_0008,"Addenbroke Island, BC, Canada",50.37733322590891,-125.54674486141779,geographic_connected_component
edya-norway,"Edøya, Norway",landing_region_0190,"Brekstad, Norway",63.30103670000029,8.093379399999966,geographic_connected_component
eek-ak-united-states,"Eek, AK, United States",landing_region_0343,"Eek, AK, United States",60.21970496999992,-162.03247680000007,geographic_connected_component
eemshaven-netherlands,"Eemshaven, Netherlands",landing_region_0344,"Eemshaven, Netherlands",53.4428046914825,6.816022174500881,geographic_connected_component
egersund-norway,"Egersund, Norway",landing_region_0345,"Egersund, Norway",58.42414318521949,5.988714595834254,geographic_connected_component
egg-island-bc-canada,"Egg Island, BC, Canada",landing_region_0008,"Addenbroke Island, BC, Canada",51.24964662436544,-127.83443834465406,geographic_connected_component
eight-mile-rock-bahamas,"Eight-Mile Rock, Bahamas",landing_region_0346,"Eight-Mile Rock, Bahamas",26.539625615887893,-78.80286066262623,geographic_connected_component
el-goro-canary-islands-spain,"El Goro, Canary Islands, Spain",landing_region_0018,"Aguimes, Canary Islands, Spain",27.959398125393665,-15.398742981042082,geographic_connected_component
el-mdano-canary-islands-spain,"El Médano, Canary Islands, Spain",landing_region_0227,"Candelaria, Canary Islands, Spain",28.04665565421597,-16.538585923566604,geographic_connected_component
el-quawef-libya,"El-Quawef, Libya",landing_region_0347,"El-Quawef, Libya",31.760813307797136,25.08736115072189,geographic_connected_component
el-segundo-ca-united-states,"El Segundo, CA, United States",landing_region_0348,"El Segundo, CA, United States",33.91992001851462,-118.4159551589325,geographic_connected_component
elk-bay-bc-canada,"Elk Bay, BC, Canada",landing_region_0008,"Addenbroke Island, BC, Canada",50.27742985648948,-125.44214123814987,geographic_connected_component
emi-japan,"Emi, Japan",landing_region_0266,"Chikura, Japan",35.06238218890678,140.0611078272411,geographic_connected_component
emmonak-ak-united-states,"Emmonak, AK, United States",landing_region_0349,"Emmonak, AK, United States",62.77621559999992,-164.59792190000002,geographic_connected_component
ende-indonesia,"Ende, Indonesia",landing_region_0350,"Ende, Indonesia",-8.845699000000248,121.64273999999965,geographic_connected_component
endrup-denmark,"Endrup, Denmark",landing_region_0167,"Blaabjerg, Denmark",55.523118197393856,8.718388990908426,geographic_connected_component
ermoupoli-greece,"Ermoupoli, Greece",landing_region_0017,"Agios Sostis, Greece",37.43946272240985,24.939288762213785,geographic_connected_component
esbjerg-denmark,"Esbjerg, Denmark",landing_region_0167,"Blaabjerg, Denmark",55.46522,8.456905000000187,geographic_connected_component
esperanza-bc-canada,"Esperanza, BC, Canada",landing_region_0008,"Addenbroke Island, BC, Canada",49.87491870003231,-126.7417876315964,geographic_connected_component
espoo-finland,"Espoo, Finland",landing_region_0351,"Espoo, Finland",60.20678,24.65578,geographic_connected_component
esquimalt-bc-canada,"Esquimalt, BC, Canada",landing_region_0293,"Cordova Bay, BC, Canada",48.43011999999963,-123.414634,geographic_connected_component
estepona-spain,"Estepona, Spain",landing_region_0268,"Chipiona, Spain",36.42710220192439,-5.145869384899948,geographic_connected_component
eureka-ca-united-states,"Eureka, CA, United States",landing_region_0352,"Eureka, CA, United States",40.803255000000355,-124.159554,geographic_connected_component
everett-wa-united-states,"Everett, WA, United States",landing_region_0223,"Cama Beach, WA, United States",47.976575,-122.206419,geographic_connected_component
evie-united-kingdom,"Evie, United Kingdom",landing_region_0021,"Aikerness Bay, United Kingdom",59.113460000000345,-3.108369999999561,geographic_connected_component
eydhafushi-maldives,"Eydhafushi, Maldives",landing_region_0353,"Eydhafushi, Maldives",5.10323036500878,73.07082325253708,geographic_connected_component
faial-portugal,"Faial, Portugal",landing_region_0354,"Faial, Portugal",38.525099690783364,-28.647561720454593,geographic_connected_component
fair-isle-united-kingdom,"Fair Isle, United Kingdom",landing_region_0152,"Belmont, United Kingdom",59.52786,-1.61797,geographic_connected_component
fakaofo-tokelau,"Fakaofo, Tokelau",landing_region_0355,"Fakaofo, Tokelau",-9.383815953134352,-171.2614703759693,geographic_connected_component
fakarava-french-polynesia,"Fakarava, French Polynesia",landing_region_0356,"Fakarava, French Polynesia",-16.310313265214543,-145.6245632034352,geographic_connected_component
fakfak-indonesia,"Fakfak, Indonesia",landing_region_0357,"Fakfak, Indonesia",-3.097769992193036,133.01941359689437,geographic_connected_component
false-pass-ak-united-states,"False Pass, AK, United States",landing_region_0358,"False Pass, AK, United States",54.85083300000045,-163.415,geographic_connected_component
fangshan-taiwan,"Fangshan, Taiwan",landing_region_0317,"Dawu, Taiwan",22.249258581382197,120.66209813218148,geographic_connected_component
fano-denmark,"Fano, Denmark",landing_region_0167,"Blaabjerg, Denmark",55.44848000000027,8.40694600000052,geographic_connected_component
faratea-french-polynesia,"Faratea, French Polynesia",landing_region_0359,"Faratea, French Polynesia",-17.71856760999951,-149.30591250000003,geographic_connected_component
farewell-nl-canada,"Farewell, NL, Canada",landing_region_0360,"Farewell, NL, Canada",49.55587482999968,-54.479165000000414,geographic_connected_component
farosund-sweden,"Farosund, Sweden",landing_region_0361,"Farosund, Sweden",57.8629804561028,19.055334173866473,geographic_connected_component
fauske-norway,"Fauske, Norway",landing_region_0175,"Bodø, Norway",67.25991977910047,15.392073040652047,geographic_connected_component
feolin-ferry-united-kingdom,"Feolin Ferry, United Kingdom",landing_region_0007,"Achnaba, United Kingdom",55.8467496295193,-6.089911684880532,geographic_connected_component
fighting-bay-new-zealand,"Fighting Bay, New Zealand",landing_region_0362,"Fighting Bay, New Zealand",-41.33902520000029,174.23596710000012,geographic_connected_component
filicudi-porto-italy,"Filicudi Porto, Italy",landing_region_0044,"Alicudi Porto, Italy",38.56490397987798,14.576656824541493,geographic_connected_component
filizi-greece,"Filizi, Greece",landing_region_0017,"Agios Sostis, Greece",37.12525060559689,25.289696105851924,geographic_connected_component
fionnaphort-united-kingdom,"Fionnaphort, United Kingdom",landing_region_0007,"Achnaba, United Kingdom",56.32302,-6.368079999997523,geographic_connected_component
fish-camp-ak-united-states,"Fish Camp, AK, United States",landing_region_0363,"Fish Camp, AK, United States",59.94919988638963,-154.85885536783067,geographic_connected_component
fiumicino-italy,"Fiumicino, Italy",landing_region_0364,"Fiumicino, Italy",41.769718,12.226913000000101,geographic_connected_component
flamingo-bay-virgin-islands-u-s-,"Flamingo Bay, Virgin Islands (U.S.)",landing_region_0115,"Banana Bay, Virgin Islands (U.S.)",18.312830498451948,-64.95778990419826,geographic_connected_component
flor-norway,"Florø, Norway",landing_region_0365,"Florø, Norway",61.5963114999995,4.975850599999511,geographic_connected_component
florence-or-united-states,"Florence, OR, United States",landing_region_0366,"Florence, OR, United States",43.98213392544815,-124.09983785116658,geographic_connected_component
flores-portugal,"Flores, Portugal",landing_region_0296,"Corvo, Portugal",39.462211754202585,-31.128516994172585,geographic_connected_component
flying-fish-cove-christmas-island,"Flying Fish Cove, Christmas Island",landing_region_0367,"Flying Fish Cove, Christmas Island",-10.437358645528692,105.69706984367991,geographic_connected_component
fogo-island-nl-canada,"Fogo Island, NL, Canada",landing_region_0360,"Farewell, NL, Canada",49.58377809999993,-54.395227,geographic_connected_component
fomboni-moheli-comoros,"Fomboni Moheli, Comoros",landing_region_0267,"Chindini, Comoros",-12.288236282174532,43.73959403105522,geographic_connected_component
fonte-boa-brazil,"Fonte Boa, Brazil",landing_region_0368,"Fonte Boa, Brazil",-2.515185832000585,-66.09530680999958,geographic_connected_component
forestville-qc-canada,"Forestville, QC, Canada",landing_region_0161,"Bic, QC, Canada",48.73935708855762,-69.08360294628653,geographic_connected_component
fort-amador-panama,"Fort Amador, Panama",landing_region_0107,"Balboa, Panama",8.934109660849998,-79.54673220597367,geographic_connected_component
fort-dauphin-madagascar,"Fort Dauphin, Madagascar",landing_region_0369,"Fort Dauphin, Madagascar",-25.022532459682907,46.98537557369402,geographic_connected_component
fortaleza-brazil,"Fortaleza, Brazil",landing_region_0370,"Fortaleza, Brazil",-3.718537,-38.54297900000012,geographic_connected_component
fortune-nl-canada,"Fortune, NL, Canada",landing_region_0371,"Fortune, NL, Canada",47.071981606498106,-55.82728663711745,geographic_connected_component
four-mile-bluff-tas-australia,"Four Mile Bluff, TAS, Australia",landing_region_0372,"Four Mile Bluff, TAS, Australia",-41.03327707528322,146.85016551780996,geographic_connected_component
frederiksted-virgin-islands-u-s-,"Frederiksted, Virgin Islands (U.S.)",landing_region_0208,"Butler Bay, Virgin Islands (U.S.)",17.71242997088509,-64.88152042697823,geographic_connected_component
freeport-tx-united-states,"Freeport, TX, United States",landing_region_0373,"Freeport, TX, United States",28.949570369461807,-95.34436958207267,geographic_connected_component
freetown-sierra-leone,"Freetown, Sierra Leone",landing_region_0374,"Freetown, Sierra Leone",8.485330684414931,-13.238099980411818,geographic_connected_component
french-creek-bc-canada,"French Creek, BC, Canada",landing_region_0008,"Addenbroke Island, BC, Canada",49.34214441999988,-124.35616409999997,geographic_connected_component
fresh-creek-bahamas,"Fresh Creek, Bahamas",landing_region_0375,"Fresh Creek, Bahamas",24.689806158505295,-77.84460938833539,geographic_connected_component
friedrichshafen-germany,"Friedrichshafen, Germany",landing_region_0376,"Friedrichshafen, Germany",47.661764799999965,9.480011299999973,geographic_connected_component
frigate-bay-saint-kitts-and-nevis,"Frigate Bay, Saint Kitts and Nevis",landing_region_0105,"Baie Longue, Saint Martin",17.29043440784797,-62.68344543000027,geographic_connected_component
fujairah-united-arab-emirates,"Fujairah, United Arab Emirates",landing_region_0377,"Fujairah, United Arab Emirates",25.12169311729696,56.33372573425405,geographic_connected_component
fukuoka-japan,"Fukuoka, Japan",landing_region_0378,"Fukuoka, Japan",33.59035499999965,130.40171599999988,geographic_connected_component
funafuti-tuvalu,"Funafuti, Tuvalu",landing_region_0379,"Funafuti, Tuvalu",-8.520204506000361,179.19882450000034,geographic_connected_component
funchal-portugal,"Funchal, Portugal",landing_region_0380,"Funchal, Portugal",32.64686582848514,-16.908946989325337,geographic_connected_component
funningsfjordur-faroe-islands,"Funningsfjordur, Faroe Islands",landing_region_0381,"Funningsfjordur, Faroe Islands",62.24410742927245,-6.928143512944177,geographic_connected_component
fuvahmulah-maldives,"Fuvahmulah, Maldives",landing_region_0382,"Fuvahmulah, Maldives",-0.298304384685104,73.42687768780485,geographic_connected_component
fuzhou-china,"Fuzhou, China",landing_region_0141,"Beigan, Taiwan",25.78006638728176,119.61855638196424,geographic_connected_component
gabriola-bc-canada,"Gabriola, BC, Canada",landing_region_0008,"Addenbroke Island, BC, Canada",49.17330175420969,-123.8440093857028,geographic_connected_component
gaeta-italy,"Gaeta, Italy",landing_region_0383,"Gaeta, Italy",41.217935235484155,13.565445462699188,geographic_connected_component
gahdhoo-maldives,"Gahdhoo, Maldives",landing_region_0384,"Gahdhoo, Maldives",0.288802003782011,73.45549094878496,geographic_connected_component
gallows-bay-bonaire-sint-eustatius-and-saba,"Gallows Bay, Bonaire, Sint Eustatius and Saba",landing_region_0105,"Baie Longue, Saint Martin",17.475916931774574,-62.98552567636872,geographic_connected_component
galway-ireland,"Galway, Ireland",landing_region_0385,"Galway, Ireland",53.27388633164341,-9.048344475059972,geographic_connected_component
gambier-harbour-bc-canada,"Gambier Harbour, BC, Canada",landing_region_0008,"Addenbroke Island, BC, Canada",49.43963951992595,-123.43887940875001,geographic_connected_component
gan-maldives,"Gan, Maldives",landing_region_0386,"Gan, Maldives",1.918411782935871,73.54465104187312,geographic_connected_component
ganavan-bay-united-kingdom,"Ganavan Bay, United Kingdom",landing_region_0007,"Achnaba, United Kingdom",56.43776362936582,-5.475800791797472,geographic_connected_component
ganaveh-iran,"Ganaveh, Iran",landing_region_0387,"Ganaveh, Iran",29.57074954758684,50.52113219569988,geographic_connected_component
gav-spain,"Gavá, Spain",landing_region_0126,"Barcelona, Spain",41.304002941820244,2.001342348824283,geographic_connected_component
gedser-denmark,"Gedser, Denmark",landing_region_0388,"Gedser, Denmark",54.57634945132528,11.928972034748147,geographic_connected_component
genoa-italy,"Genoa, Italy",landing_region_0389,"Genoa, Italy",44.410338999999794,8.938900000000473,geographic_connected_component
geoje-south-korea,"Geoje, South Korea",landing_region_0205,"Busan, South Korea",34.89432230348712,128.6211668646306,geographic_connected_component
george-town-bahamas,"George Town, Bahamas",landing_region_0390,"George Town, Bahamas",23.516551982193732,-75.78800684134592,geographic_connected_component
georgetown-guyana,"Georgetown, Guyana",landing_region_0391,"Georgetown, Guyana",6.804497184903389,-58.15484062190828,geographic_connected_component
gianyar-indonesia,"Gianyar, Indonesia",landing_region_0110,"Bali, Indonesia",-8.536715000000196,115.33144100000015,geographic_connected_component
gibraltar-gibraltar,"Gibraltar, Gibraltar",landing_region_0268,"Chipiona, Spain",36.155938394333255,-5.347675882562271,geographic_connected_component
gibsons-bc-canada,"Gibsons, BC, Canada",landing_region_0008,"Addenbroke Island, BC, Canada",49.401617050219066,-123.51457762609738,geographic_connected_component
giglio-italy,"Giglio, Italy",landing_region_0392,"Giglio, Italy",42.35845318350371,10.91505260455934,geographic_connected_component
gillies-bay-bc-canada,"Gillies Bay, BC, Canada",landing_region_0008,"Addenbroke Island, BC, Canada",49.677892319989546,-124.48885463490913,geographic_connected_component
gimar-canary-islands-spain,"Güimar, Canary Islands, Spain",landing_region_0227,"Candelaria, Canary Islands, Spain",28.310582527291686,-16.412560622219107,geographic_connected_component
girne-cyprus,"Girne, Cyprus",landing_region_0393,"Girne, Cyprus",35.2991225036909,33.23628115920059,geographic_connected_component
girvan-united-kingdom,"Girvan, United Kingdom",landing_region_0007,"Achnaba, United Kingdom",55.24016399999987,-4.854218000000534,geographic_connected_component
glen-lyon-united-kingdom,"Glen Lyon, United Kingdom",landing_region_0394,"Glen Lyon, United Kingdom",60.33307401281914,-4.333418788572565,geographic_connected_component
glenbarr-united-kingdom,"Glenbarr, United Kingdom",landing_region_0007,"Achnaba, United Kingdom",55.565500154567616,-5.697577978438339,geographic_connected_component
goheung-south-korea,"Goheung, South Korea",landing_region_0395,"Goheung, South Korea",34.60940175186309,127.28599296347542,geographic_connected_component
gold-river-bc-canada,"Gold River, BC, Canada",landing_region_0008,"Addenbroke Island, BC, Canada",49.781048172407445,-126.05444190775022,geographic_connected_component
golden-bay-malta,"Golden Bay, Malta",landing_region_0102,"Bahar ic-Caghaq, Malta",35.93869335743338,14.344455230051304,geographic_connected_component
golfo-aranci-italy,"Golfo Aranci, Italy",landing_region_0023,"Ajaccio, France",41.00477599999973,9.613161999999766,geographic_connected_component
goonhilly-downs-united-kingdom,"Goonhilly Downs, United Kingdom",landing_region_0396,"Goonhilly Downs, United Kingdom",50.0248026869269,-5.174531473969396,geographic_connected_component
goseong-ri-south-korea,"Goseong-ri, South Korea",landing_region_0397,"Goseong-ri, South Korea",33.4415685056695,126.90930752942877,geographic_connected_component
governors-harbor-bahamas,"Governors Harbor, Bahamas",landing_region_0398,"Governors Harbor, Bahamas",25.196118966380833,-76.24064323944407,geographic_connected_component
gqeberha-south-africa,"Gqeberha, South Africa",landing_region_0399,"Gqeberha, South Africa",-33.962498999999816,25.623280000000147,geographic_connected_component
graciosa-portugal,"Graciosa, Portugal",landing_region_0354,"Faial, Portugal",39.01102990331266,-27.963480173814336,geographic_connected_component
gran-canaria-canary-islands-spain,"Gran Canaria, Canary Islands, Spain",landing_region_0018,"Aguimes, Canary Islands, Spain",27.957734999999765,-15.596565000000123,geographic_connected_component
granadilla-de-abona-spain,"Granadilla de Abona, Spain",landing_region_0227,"Candelaria, Canary Islands, Spain",28.059115806261115,-16.518053538916995,geographic_connected_component
grand-baie-rodrigues-mauritius,"Grand Baie (Rodrigues), Mauritius",landing_region_0400,"Grand Baie (Rodrigues), Mauritius",-19.674345590458458,63.44823384600894,geographic_connected_component
granite-bay-bc-canada,"Granite Bay, BC, Canada",landing_region_0008,"Addenbroke Island, BC, Canada",50.23583903062007,-125.30261850538005,geographic_connected_component
great-bay-beach-sint-maarten,"Great Bay Beach, Sint Maarten",landing_region_0105,"Baie Longue, Saint Martin",18.02447108294624,-63.055056877112236,geographic_connected_component
great-bay-virgin-islands-u-s-,"Great Bay, Virgin Islands (U.S.)",landing_region_0115,"Banana Bay, Virgin Islands (U.S.)",18.322472111215845,-64.84319037600663,geographic_connected_component
great-level-bay-bonaire-sint-eustatius-and-saba,"Great Level Bay, Bonaire, Sint Eustatius and Saba",landing_region_0105,"Baie Longue, Saint Martin",17.615120819465385,-63.244216899359444,geographic_connected_component
great-nicobar-india,"Great Nicobar, India",landing_region_0401,"Great Nicobar, India",7.031330621106178,93.92740511526485,geographic_connected_component
greenbank-wa-united-states,"Greenbank, WA, United States",landing_region_0223,"Cama Beach, WA, United States",48.09865442899575,-122.57371036922427,geographic_connected_component
gresik-indonesia,"Gresik, Indonesia",landing_region_0124,"Banyu Urip, Indonesia",-7.165175579207309,112.65238763118269,geographic_connected_component
greve-de-lecq-jersey,"Greve de Lecq, Jersey",landing_region_0077,"Archirondel, Jersey",49.24794670647614,-2.201437877011841,geographic_connected_component
greymouth-new-zealand,"Greymouth, New Zealand",landing_region_0402,"Greymouth, New Zealand",-42.46666700000018,171.19999999999968,geographic_connected_component
groudle-bay-isle-of-man,"Groudle Bay, Isle of Man",landing_region_0334,"Douglas, Isle of Man",54.16697942720116,-4.423897240100775,geographic_connected_component
grover-beach-ca-united-states,"Grover Beach, CA, United States",landing_region_0403,"Grover Beach, CA, United States",35.1206334382351,-120.62142234655879,geographic_connected_component
guantanamo-bay-cuba,"Guantanamo Bay, Cuba",landing_region_0404,"Guantanamo Bay, Cuba",19.939616197540328,-75.15816600469212,geographic_connected_component
guanyin-mountain-china,"Guanyin Mountain, China",landing_region_0306,"Dadeng Island, China",24.493917245738405,118.18895535292904,geographic_connected_component
gulliver-mi-united-states,"Gulliver, MI, United States",landing_region_0139,"Beaver Island, MI, United States",45.99314791,-86.01215480000009,geographic_connected_component
gump-of-spurness-united-kingdom,"Gump of Spurness, United Kingdom",landing_region_0021,"Aikerness Bay, United Kingdom",59.20632000000029,-2.701490000000198,geographic_connected_component
guningtou-taiwan,"Guningtou, Taiwan",landing_region_0306,"Dadeng Island, China",24.476142461748875,118.30711933172064,geographic_connected_component
gunsan-south-korea,"Gunsan, South Korea",landing_region_0405,"Gunsan, South Korea",35.96767720000027,126.73662929999966,geographic_connected_component
gurnard-united-kingdom,"Gurnard, United Kingdom",landing_region_0406,"Gurnard, United Kingdom",50.7602504958822,-1.32144677199977,geographic_connected_component
gustavia-saint-barthlemy,"Gustavia, Saint Barthélemy",landing_region_0105,"Baie Longue, Saint Martin",17.897915647022234,-62.85054881266757,geographic_connected_component
gustavus-ak-united-states,"Gustavus, AK, United States",landing_region_0407,"Gustavus, AK, United States",58.41785832955816,-135.72082551682627,geographic_connected_component
gusukube-japan,"Gusukube, Japan",landing_region_0408,"Gusukube, Japan",24.751502030000356,125.38733299999983,geographic_connected_component
gutcher-united-kingdom,"Gutcher, United Kingdom",landing_region_0152,"Belmont, United Kingdom",60.669439999999305,-1.00722,geographic_connected_component
hachijo-japan,"Hachijo, Japan",landing_region_0409,"Hachijo, Japan",33.11229519278616,139.79680232984748,geographic_connected_component
hachinohe-japan,"Hachinohe, Japan",landing_region_0410,"Hachinohe, Japan",40.476710999999796,141.50050400000035,geographic_connected_component
haggards-cove-bc-canada,"Haggard's Cove, BC, Canada",landing_region_0008,"Addenbroke Island, BC, Canada",48.964512091916774,-125.02289127964777,geographic_connected_component
hahajima-japan,"Hahajima, Japan",landing_region_0263,"Chichijima, Japan",26.650916758530467,142.1599040123993,geographic_connected_component
haifa-israel,"Haifa, Israel",landing_region_0083,"Ashkelon, Israel",32.811596,34.998743,geographic_connected_component
haina-dominican-republic,"Haina, Dominican Republic",landing_region_0213,"Cacique, Dominican Republic",18.698998571766964,-70.16183895197608,geographic_connected_component
haines-ak-united-states,"Haines, AK, United States",landing_region_0411,"Haines, AK, United States",59.235832218021784,-135.44499582977528,geographic_connected_component
half-moon-bay-cayman-islands,"Half Moon Bay, Cayman Islands",landing_region_0412,"Half Moon Bay, Cayman Islands",19.28295827240884,-81.16677500363237,geographic_connected_component
halifax-ns-canada,"Halifax, NS, Canada",landing_region_0413,"Halifax, NS, Canada",44.64579771640326,-63.573952993896306,geographic_connected_component
halul-island-qatar,"Halul Island, Qatar",landing_region_0414,"Halul Island, Qatar",25.668564866048857,52.42025194409558,geographic_connected_component
hamns-finland,"Hamnäs, Finland",landing_region_0415,"Hamnäs, Finland",60.099262,19.804952900000593,geographic_connected_component
hana-hi-united-states,"Hana, HI, United States",landing_region_0416,"Hana, HI, United States",20.756981028730195,-155.98674859999997,geographic_connected_component
hanko-finland,"Hanko, Finland",landing_region_0417,"Hanko, Finland",59.82321000411124,22.968222026939856,geographic_connected_component
hanstholm-denmark,"Hanstholm, Denmark",landing_region_0418,"Hanstholm, Denmark",57.11164198902862,8.616176544405644,geographic_connected_component
hao-french-polynesia,"Hao, French Polynesia",landing_region_0419,"Hao, French Polynesia",-18.21576216824627,-140.9080889473968,geographic_connected_component
haql-saudi-arabia,"Haql, Saudi Arabia",landing_region_0074,"Aqaba, Jordan",29.283851999999897,34.95220799999987,geographic_connected_component
haradsholm-finland,"Haradsholm, Finland",landing_region_0420,"Haradsholm, Finland",60.300969420291864,22.30210921757059,geographic_connected_component
haramous-djibouti,"Haramous, Djibouti",landing_region_0330,"Djibouti City, Djibouti",11.57367892559012,43.16166943911836,geographic_connected_component
harbledown-island-bc-canada,"Harbledown Island, BC, Canada",landing_region_0008,"Addenbroke Island, BC, Canada",50.573835184307484,-126.61076411697788,geographic_connected_component
harbour-pointe-wa-united-states,"Harbour Pointe, WA, United States",landing_region_0223,"Cama Beach, WA, United States",47.88621453431034,-122.30218287464227,geographic_connected_component
harbour-view-jamaica,"Harbour View, Jamaica",landing_region_0201,"Bull Bay, Jamaica",17.949676769482377,-76.71686360521018,geographic_connected_component
hartley-bay-bc-canada,"Hartley Bay, BC, Canada",landing_region_0207,"Butedale, BC, Canada",53.4252931058726,-129.25478363865886,geographic_connected_component
hasle-denmark,"Hasle, Denmark",landing_region_0181,"Borbby Strandbad, Sweden",55.18257019610301,14.708200401335704,geographic_connected_component
hat-island-wa-united-states,"Hat Island, WA, United States",landing_region_0223,"Cama Beach, WA, United States",48.013589714609076,-122.31980253408008,geographic_connected_component
hateruma-japan,"Hateruma, Japan",landing_region_0421,"Hateruma, Japan",24.06001916000044,123.77844360000016,geographic_connected_component
havelet-bay-guernsey,"Havelet Bay, Guernsey",landing_region_0077,"Archirondel, Jersey",49.4509894968767,-2.529513816474767,geographic_connected_component
havelock-india,"Havelock, India",landing_region_0422,"Havelock, India",11.976057677884663,92.98756203105867,geographic_connected_component
hawaii-kai-hi-united-states,"Hawaii Kai, HI, United States",landing_region_0125,"Barber’s Point, HI, United States",21.27199968597905,-157.66889976388774,geographic_connected_component
hawk-inlet-ak-united-states,"Hawk Inlet, AK, United States",landing_region_0407,"Gustavus, AK, United States",58.128107290422165,-134.74182249978475,geographic_connected_component
hawksbill-bahamas,"Hawksbill, Bahamas",landing_region_0346,"Eight-Mile Rock, Bahamas",26.51690828149035,-78.73684508439224,geographic_connected_component
heim-norway,"Åheim, Norway",landing_region_0365,"Florø, Norway",62.035985699999486,5.522346499999918,geographic_connected_component
helsingborg-sweden,"Helsingborg, Sweden",landing_region_0051,"Alsgarde, Denmark",56.04384398259434,12.695866022723388,geographic_connected_component
helsingr-denmark,"Helsingør, Denmark",landing_region_0051,"Alsgarde, Denmark",56.030436808568545,12.592155158693062,geographic_connected_component
helsinki-finland,"Helsinki, Finland",landing_region_0351,"Espoo, Finland",60.17107541825205,24.932478447942366,geographic_connected_component
hemnesberget-norway,"Hemnesberget, Norway",landing_region_0423,"Hemnesberget, Norway",66.2241605995991,13.624454232090782,geographic_connected_component
heraklion-greece,"Heraklion, Greece",landing_region_0424,"Heraklion, Greece",35.33839682411487,25.1278602660048,geographic_connected_component
heriot-bay-bc-canada,"Heriot Bay, BC, Canada",landing_region_0008,"Addenbroke Island, BC, Canada",50.10125851949136,-125.21592300972176,geographic_connected_component
herlandsvika-norway,"Herlandsvika, Norway",landing_region_0063,"Andalsnes, Norway",62.614440999999644,6.465751000000408,geographic_connected_component
hermosa-beach-ca-united-states,"Hermosa Beach, CA, United States",landing_region_0348,"El Segundo, CA, United States",33.862232632157735,-118.39954892055475,geographic_connected_component
herzeliyya-israel,"Herzeliyya, Israel",landing_region_0083,"Ashkelon, Israel",32.16241300000017,34.84467500000032,geographic_connected_component
highbridge-united-kingdom,"Highbridge, United Kingdom",landing_region_0186,"Brean, United Kingdom",51.2222247152995,-2.975021313373071,geographic_connected_component
higuerote-venezuela,"Higuerote, Venezuela",landing_region_0425,"Higuerote, Venezuela",10.480347852296964,-66.09810892060456,geographic_connected_component
hillsboro-or-united-states,"Hillsboro, OR, United States",landing_region_0426,"Hillsboro, OR, United States",45.522898824562965,-122.98980067645105,geographic_connected_component
hilo-hi-united-states,"Hilo, HI, United States",landing_region_0427,"Hilo, HI, United States",19.719234999999824,-155.081864,geographic_connected_component
hirara-japan,"Hirara, Japan",landing_region_0408,"Gusukube, Japan",24.794621700913318,125.30132346307869,geographic_connected_component
